,Nome_UF,Codigo,Nome_Município,capital,latitude,longitude,pop_25_ens_fundamental2010,indicetheil2010,pop_dom_paredesnaoalvenaria2010,pop_25_ens_medio2010,expect_anos_estudo2010,pop_dom_aguaencanada2010,df_pop_dom_energia_eletrica2010,pop_dom_coleta_lixo2010,pop_25_ens_superior2010,razaodependencia2010,esperanca_ao_nascer2010,tx_mortalidadeate_5anos2010,tx_fecundidade2010,perc_vulneraiveispobreza2010,pop_dom_agua_esgoto_inadequado2010,perc_pobres2010,tx_analfabetismo2010,tx_envelhecimento2010,perc_extrem_pobre2010,idhm2010,idhm_edu2010,idhm_long2010,idhm_renda2010,indice_gini2010
0,Rondônia,1100015,Alta Floresta D'Oeste,0,-11.9283,-61.9953,29.39,0.6,7.18,19.19,8.67,93.69,93.98,94.05,5.51,47.37,70.75,25.49,2.24,47.12,9.31,26.04,11.99,5.84,14.29,0.641,0.526,0.763,0.657,0.58
1,Rondônia,1100379,Alto Alegre dos Parecis,0,-12.132,-61.835,20.88,0.51,1.79,12.18,9.46,93.59,91.11,92.79,3.14,52.06,71.64,22.91,2.69,55.19,15.73,33.84,13.53,4.86,21.1,0.592,0.443,0.777,0.603,0.54
2,Rondônia,1100403,Alto Paraíso,0,-9.71429,-63.3188,24.49,0.54,6.83,13.51,7.61,95.29,97.06,87.49,3.02,53.17,73.22,18.7,2.93,43.91,15.58,18.03,11.81,4.92,8.34,0.625,0.457,0.804,0.664,0.54
3,Rondônia,1100346,Alvorada D'Oeste,0,-11.3463,-62.2847,30.28,0.54,3.74,19.2,9.78,94.31,98.06,95.35,5.43,48.82,70.75,25.49,1.87,45.04,7.37,23.63,12.96,6.12,11.71,0.643,0.534,0.763,0.654,0.53
4,Rondônia,1100023,Ariquemes,0,-9.90571,-63.0325,45.62,0.51,5.62,31.45,9.18,98.54,98.58,96.72,8.13,46.68,73.36,20.53,1.91,29.04,11.4,11.54,7.9,4.36,4.36,0.702,0.6,0.806,0.716,0.53
5,Rondônia,1100452,Buritis,0,-10.1943,-63.8324,29.42,0.45,6.12,18.23,8.3,90.12,94.44,96.4,4.03,51.51,70.08,27.54,2.57,41.94,13.51,20.83,9.85,3.8,9.18,0.616,0.479,0.751,0.65,0.5
6,Rondônia,1100031,Cabixi,0,-13.4945,-60.552,29.79,0.44,0.84,20.42,10.09,95.49,96.36,99.14,4.93,48.12,70.39,26.58,2.15,46.98,3.31,21.2,13.63,6.87,7.27,0.65,0.559,0.757,0.65,0.51
7,Rondônia,1100601,Cacaulândia,0,-10.349,-62.9043,24.26,0.55,6.12,14.19,9.44,93.68,94.16,96.1,3.59,53.74,73.08,19.05,2.53,45.4,10.75,22.02,13.22,5.93,8.8,0.646,0.506,0.801,0.664,0.56
8,Rondônia,1100049,Cacoal,0,-11.4343,-61.4562,42.5,0.61,3.39,28.06,9.74,97.96,98.89,98.17,8.71,43.79,74.27,15.38,1.9,29.82,1.85,13.08,8.29,5.57,5.97,0.718,0.62,0.821,0.727,0.57
9,Rondônia,1100700,Campo Novo de Rondônia,0,-10.5712,-63.6266,21.65,0.79,0.86,10.47,7.86,91.75,84.79,90.17,2.95,53.14,71.34,23.75,2.73,54.43,16.2,31.24,12.31,3.58,15.58,0.593,0.404,0.772,0.667,0.67
10,Rondônia,1100809,Candeias do Jamari,0,-8.7907,-63.7005,38.95,0.37,6.05,23.66,8.19,95.88,95.28,76.96,3.94,54.61,74.11,16.55,2.87,38.44,16.08,15.8,10.98,3.96,7.14,0.649,0.512,0.819,0.652,0.47
11,Rondônia,1100908,Castanheiras,0,-11.4253,-61.9482,33.13,0.44,1.54,16.74,9.96,95.22,97.44,90.07,4.06,48.71,73.15,18.88,2.54,41.69,5.47,21.08,14.29,7.13,12.02,0.658,0.547,0.803,0.65,0.5
12,Rondônia,1100056,Cerejeiras,0,-13.187,-60.8168,36.13,0.46,0.85,24.06,10.22,97.53,98.85,91.89,7.09,45.67,72.94,19.42,2.12,34.85,5.34,13.7,10.29,6.44,4.72,0.692,0.602,0.799,0.688,0.5
13,Rondônia,1100924,Chupinguaia,0,-12.5611,-60.8877,31.62,0.39,0.88,16.68,9.53,85.16,92.11,87.79,5.03,50.76,74.21,16.31,2.92,37.88,8.08,16.12,10.31,3.45,5.39,0.652,0.514,0.82,0.659,0.47
14,Rondônia,1100064,Colorado do Oeste,0,-13.1174,-60.5454,34.92,0.45,5.63,23.39,10.4,95.54,97.76,92.79,7.88,45.82,73.81,17.28,1.89,37.11,2.99,15.76,12.43,7.51,6.64,0.685,0.584,0.814,0.676,0.49
15,Rondônia,1100072,Corumbiara,0,-12.9551,-60.8947,24.61,0.43,1.08,13.04,9.82,93.24,97.81,90.19,4.52,46.32,71.45,23.45,2.29,46.42,6.31,24.02,12.47,5.67,10.16,0.613,0.473,0.774,0.63,0.48
16,Rondônia,1100080,Costa Marques,0,-12.4367,-64.228,34.19,0.48,4.88,20.17,9.22,95.67,90.13,79.35,4.98,60.13,70.04,27.66,2.72,55.8,36.41,30.48,8.6,3.82,9.66,0.611,0.493,0.751,0.616,0.52
17,Rondônia,1100940,Cujubim,0,-9.36065,-62.5846,26.08,0.47,4.02,13.95,8.01,94.18,91.47,84.27,2.21,54.11,72.33,21.02,2.93,40.1,21.04,19.56,11.94,2.78,9.04,0.612,0.439,0.789,0.663,0.52
18,Rondônia,1100098,Espigão D'Oeste,0,-11.5266,-61.0252,33.01,0.48,5.89,18.24,9.55,93.7,96.7,91.07,5.72,46.83,74.15,16.47,2.22,35.08,7.66,13.86,11.33,5.21,6.6,0.672,0.536,0.819,0.691,0.52
19,Rondônia,1101005,Governador Jorge Teixeira,0,-10.61,-62.7371,21.61,0.56,0.92,10.46,9.0,94.71,94.34,95.78,2.93,51.22,70.71,25.61,2.52,53.67,6.33,27.2,13.35,5.68,11.52,0.596,0.444,0.762,0.627,0.55
20,Rondônia,1100106,Guajará-Mirim,0,-10.7889,-65.3296,46.03,0.51,7.85,30.44,8.17,93.26,97.71,90.41,7.06,56.67,74.39,15.92,2.61,43.92,36.84,23.47,8.06,4.82,10.38,0.657,0.519,0.823,0.663,0.54
21,Rondônia,1101104,Itapuã do Oeste,0,-9.19687,-63.1809,27.79,0.42,20.33,17.26,9.16,91.75,97.72,88.53,4.02,57.14,70.08,27.54,2.99,45.24,23.92,17.61,13.0,4.7,9.04,0.614,0.488,0.751,0.633,0.47
22,Rondônia,1100114,Jaru,0,-10.4318,-62.4788,36.4,0.44,3.55,24.03,9.42,97.09,99.4,95.04,6.94,47.49,74.51,15.63,2.11,32.12,15.11,13.78,10.66,5.62,4.32,0.689,0.577,0.825,0.687,0.49
23,Rondônia,1100122,Ji-Paraná,0,-10.8777,-61.9322,48.48,0.52,3.48,34.01,9.95,97.81,99.35,95.36,8.73,43.98,73.6,17.43,2.26,26.26,5.87,8.56,7.79,5.05,2.67,0.714,0.617,0.81,0.728,0.53
24,Rondônia,1100130,Machadinho D'Oeste,0,-9.44363,-61.9818,25.91,0.52,4.07,13.87,7.8,92.56,88.1,91.21,3.72,52.55,70.32,26.79,2.54,51.72,17.19,28.55,11.79,4.05,17.59,0.596,0.446,0.755,0.629,0.55
25,Rondônia,1101203,Ministro Andreazza,0,-11.196,-61.5174,29.01,0.5,1.32,17.07,8.95,92.14,97.85,100.0,3.85,51.97,71.55,23.17,2.41,47.9,4.71,26.14,12.67,5.84,12.76,0.638,0.518,0.776,0.647,0.54
26,Rondônia,1101302,Mirante da Serra,0,-11.029,-62.6696,26.44,0.69,2.69,13.65,9.76,96.64,96.59,86.1,4.12,53.4,72.99,19.29,2.39,47.79,10.98,24.22,13.51,6.72,10.94,0.643,0.494,0.8,0.673,0.6
27,Rondônia,1101401,Monte Negro,0,-10.2458,-63.29,25.57,0.39,2.08,15.06,9.65,98.33,95.85,86.05,5.07,55.53,70.71,25.59,2.47,42.84,9.55,20.75,14.54,5.49,5.69,0.607,0.454,0.762,0.645,0.47
28,Rondônia,1100148,Nova Brasilândia D'Oeste,0,-11.7247,-62.3127,30.12,0.57,0.88,18.76,9.44,94.07,94.95,94.84,4.76,46.8,70.75,25.49,2.03,46.94,9.6,23.16,11.25,5.49,10.3,0.643,0.524,0.763,0.664,0.56
29,Rondônia,1100338,Nova Mamoré,0,-10.4077,-65.3346,24.47,0.47,4.61,13.61,7.7,93.81,91.43,78.14,3.49,56.64,71.15,24.3,2.78,52.95,31.57,28.2,13.07,3.78,11.73,0.587,0.424,0.769,0.619,0.52
30,Rondônia,1101435,Nova União,0,-10.9068,-62.5564,23.28,0.38,0.13,11.79,8.7,90.86,96.98,95.48,2.85,50.46,70.17,27.27,2.41,53.24,11.65,27.74,13.57,5.43,8.65,0.587,0.442,0.753,0.608,0.47
31,Rondônia,1100502,Novo Horizonte do Oeste,0,-11.6961,-61.9951,28.39,0.49,2.7,16.57,8.8,92.66,98.86,97.77,4.25,47.61,72.92,19.47,2.26,54.79,8.4,32.25,14.35,6.51,16.6,0.634,0.527,0.799,0.606,0.51
32,Rondônia,1100155,Ouro Preto do Oeste,0,-10.7167,-62.2565,37.12,0.4,2.62,23.86,9.17,97.8,99.13,96.79,6.2,46.08,73.72,17.49,1.86,30.04,5.61,11.73,10.36,6.04,3.71,0.682,0.569,0.812,0.687,0.48
33,Rondônia,1101450,Parecis,0,-12.1754,-61.6032,25.46,0.44,3.13,15.11,8.96,87.26,86.86,97.33,4.8,50.08,73.0,19.28,2.78,57.31,9.93,25.68,14.71,4.32,16.04,0.617,0.485,0.8,0.604,0.52
34,Rondônia,1100189,Pimenta Bueno,0,-11.672,-61.198,43.36,0.52,5.84,28.51,9.08,97.21,99.0,97.98,8.07,45.13,73.15,18.88,2.18,25.37,4.7,9.33,8.35,5.07,2.29,0.71,0.613,0.803,0.726,0.54
35,Rondônia,1101468,Pimenteiras do Oeste,0,-13.4823,-61.0471,37.36,0.43,8.87,23.66,9.52,96.71,95.07,92.72,5.92,56.78,73.98,16.86,2.81,38.18,10.81,18.52,9.56,5.18,8.68,0.665,0.545,0.816,0.662,0.49
36,Rondônia,1100205,Porto Velho,1,-8.76077,-63.8999,58.7,0.56,3.41,43.12,8.99,92.87,98.2,95.67,12.21,42.97,74.14,16.6,2.13,21.78,17.76,7.95,5.1,3.52,2.64,0.736,0.638,0.819,0.764,0.56
37,Rondônia,1100254,Presidente Médici,0,-11.169,-61.8986,31.13,0.48,3.77,19.41,9.78,93.77,99.15,91.68,5.06,46.95,72.51,20.54,2.27,40.89,9.63,19.39,12.17,7.07,9.3,0.664,0.55,0.792,0.671,0.53
38,Rondônia,1101476,Primavera de Rondônia,0,-11.8295,-61.3153,25.72,0.48,0.07,13.8,9.65,96.29,96.79,98.25,3.03,51.77,72.94,19.42,2.66,46.87,7.54,25.19,13.42,6.87,11.45,0.641,0.512,0.799,0.645,0.52
39,Rondônia,1100262,Rio Crespo,0,-9.69965,-62.9011,31.64,0.59,0.68,19.71,9.03,97.99,96.42,95.82,3.58,53.02,73.77,17.37,2.93,54.28,8.15,28.5,13.29,6.36,16.85,0.643,0.513,0.813,0.637,0.58
40,Rondônia,1100288,Rolim de Moura,0,-11.7271,-61.7714,40.94,0.51,3.43,28.16,9.9,97.4,99.24,98.05,8.47,44.5,73.46,18.13,1.99,31.34,4.5,10.77,9.04,5.56,3.96,0.7,0.598,0.808,0.709,0.53
41,Rondônia,1100296,Santa Luzia D'Oeste,0,-11.9074,-61.7777,31.21,0.44,3.51,20.29,9.71,93.08,99.21,78.87,5.42,45.72,73.73,17.47,2.32,40.67,8.09,16.49,13.03,6.89,8.2,0.67,0.564,0.812,0.657,0.49
42,Rondônia,1101484,São Felipe D'Oeste,0,-11.9023,-61.5026,28.15,0.4,0.63,17.31,10.57,92.1,99.33,93.56,4.5,47.0,71.78,22.52,1.93,50.17,6.69,23.32,14.67,7.08,9.74,0.649,0.571,0.78,0.615,0.47
43,Rondônia,1101492,São Francisco do Guaporé,0,-12.052,-63.568,30.06,0.58,2.57,17.29,9.44,96.26,93.27,84.89,5.07,52.4,70.04,27.66,2.53,47.5,16.21,24.53,9.58,3.9,12.21,0.611,0.462,0.751,0.657,0.56
44,Rondônia,1100320,São Miguel do Guaporé,0,-11.6953,-62.7192,27.69,0.7,5.28,16.82,9.72,97.43,96.7,98.52,3.86,50.32,71.87,22.27,2.29,53.28,9.43,33.34,10.81,4.64,21.83,0.646,0.537,0.781,0.644,0.62
45,Rondônia,1101500,Seringueiras,0,-11.8055,-63.0182,21.88,0.72,6.26,10.77,8.97,96.9,96.0,90.03,2.9,51.39,71.75,22.59,2.52,59.77,15.87,29.55,10.45,4.52,16.05,0.598,0.427,0.779,0.644,0.63
46,Rondônia,1101559,Teixeirópolis,0,-10.9056,-62.242,23.58,0.34,0.58,14.06,9.2,95.05,98.65,81.91,3.66,49.94,74.09,16.6,2.37,33.7,2.88,17.73,12.96,7.63,6.75,0.643,0.498,0.818,0.653,0.43
47,Rondônia,1101609,Theobroma,0,-10.2483,-62.3538,22.1,0.57,1.26,10.06,8.14,96.15,95.37,93.06,4.06,51.48,70.4,26.56,2.35,54.11,7.32,32.94,15.13,5.53,20.54,0.589,0.434,0.757,0.622,0.57
48,Rondônia,1101708,Urupá,0,-11.1261,-62.3639,22.93,0.44,2.02,12.1,8.92,93.24,96.94,92.5,3.52,48.11,71.32,23.83,2.17,50.6,9.73,26.03,14.26,5.86,13.61,0.609,0.471,0.772,0.621,0.51
49,Rondônia,1101757,Vale do Anari,0,-9.86215,-62.1876,23.24,0.56,0.91,14.03,8.4,93.37,89.36,97.72,4.39,53.27,70.36,26.68,2.52,57.32,22.2,32.09,15.12,5.32,17.42,0.584,0.421,0.756,0.626,0.57
50,Rondônia,1101807,Vale do Paraíso,0,-10.4465,-62.1352,25.28,0.6,10.06,14.06,9.28,96.71,98.1,93.74,3.46,47.61,72.5,20.57,1.85,55.91,5.26,30.25,12.87,5.77,15.79,0.627,0.485,0.792,0.641,0.59
51,Rondônia,1100304,Vilhena,0,-12.7502,-60.1488,50.16,0.46,3.0,35.48,10.55,98.16,98.29,98.01,10.6,44.68,73.49,18.16,1.99,22.39,1.55,6.37,6.08,4.46,2.1,0.731,0.659,0.808,0.734,0.5
52,Acre,1200013,Acrelândia,0,-9.82581,-66.8972,30.69,0.52,1.79,18.31,7.35,93.87,94.56,97.44,4.22,62.68,73.45,19.82,2.84,64.18,23.82,36.56,15.64,4.3,18.09,0.604,0.466,0.808,0.584,0.54
53,Acre,1200054,Assis Brasil,0,-10.9298,-69.5738,36.71,0.63,9.96,22.52,7.08,80.31,84.4,96.83,4.75,66.61,71.19,26.27,2.88,66.28,28.79,44.09,20.91,4.17,30.66,0.588,0.456,0.77,0.578,0.61
54,Acre,1200104,Brasiléia,0,-10.995,-68.7497,31.94,0.61,10.88,22.03,7.42,91.48,91.25,95.88,5.71,58.65,71.22,26.2,2.65,59.8,20.4,35.22,18.08,5.1,17.09,0.614,0.485,0.77,0.619,0.58
55,Acre,1200138,Bujari,0,-9.81528,-67.955,26.41,0.61,10.0,16.88,8.59,81.12,94.47,94.07,4.34,64.07,71.32,25.88,3.14,63.43,23.51,37.61,24.74,4.63,20.68,0.589,0.439,0.772,0.603,0.58
56,Acre,1200179,Capixaba,0,-10.566,-67.686,25.7,0.59,2.34,14.9,7.47,86.19,93.98,95.43,3.44,68.72,72.62,22.09,3.84,59.5,31.13,35.0,21.79,4.31,17.89,0.575,0.398,0.794,0.601,0.56
57,Acre,1200203,Cruzeiro do Sul,0,-7.62762,-72.6756,41.2,0.74,6.23,29.4,9.13,79.14,94.73,84.78,7.62,67.66,71.58,25.06,3.78,56.4,39.12,34.51,18.52,4.52,18.08,0.664,0.582,0.776,0.648,0.64
58,Acre,1200252,Epitaciolândia,0,-11.0188,-68.7341,38.18,0.65,1.92,28.02,8.85,89.66,93.75,92.48,7.27,58.9,71.27,26.05,2.56,52.89,29.37,29.44,16.31,5.3,13.02,0.653,0.553,0.771,0.654,0.6
59,Acre,1200302,Feijó,0,-8.17054,-70.351,24.01,0.73,20.37,17.18,7.03,69.53,65.41,89.65,4.44,82.09,68.35,35.88,3.73,75.28,36.26,54.93,34.72,3.79,36.51,0.539,0.388,0.723,0.559,0.68
60,Acre,1200328,Jordão,0,-9.1908,-71.9503,21.47,0.88,39.93,13.84,5.73,46.28,41.83,99.29,2.57,105.47,68.83,34.15,3.84,81.69,64.96,69.69,26.87,1.98,49.17,0.469,0.283,0.731,0.499,0.71
61,Acre,1200336,Mâncio Lima,0,-7.61657,-72.8997,36.13,0.69,3.61,25.95,9.49,80.26,85.34,76.74,4.44,75.06,71.17,26.35,4.26,68.67,47.93,45.68,23.79,4.13,28.99,0.625,0.546,0.77,0.58,0.61
62,Acre,1200344,Manoel Urbano,0,-8.83291,-69.2679,27.96,0.63,17.98,18.62,5.88,80.41,76.99,74.53,4.35,78.87,71.04,26.74,3.71,64.89,31.93,38.12,32.5,3.9,25.44,0.551,0.373,0.767,0.586,0.59
63,Acre,1200351,Marechal Thaumaturgo,0,-8.93898,-72.7997,19.14,0.51,19.97,11.76,7.52,50.76,51.51,95.1,2.46,97.78,68.55,35.15,4.26,82.84,40.2,63.82,34.38,2.22,39.31,0.501,0.361,0.726,0.479,0.59
64,Acre,1200385,Plácido de Castro,0,-10.2806,-67.1371,33.36,0.56,8.36,21.7,8.72,91.46,98.57,87.36,4.69,66.37,72.17,23.36,3.2,62.29,30.89,36.79,18.45,5.25,18.76,0.622,0.517,0.786,0.593,0.55
65,Acre,1200807,Porto Acre,0,-9.58138,-67.5478,25.08,0.66,6.78,15.65,8.35,84.45,95.9,93.43,2.73,67.08,71.24,26.14,3.73,66.0,38.64,41.47,23.5,5.4,21.4,0.576,0.418,0.771,0.593,0.6
66,Acre,1200393,Porto Walter,0,-8.26323,-72.7537,22.84,0.61,12.49,15.21,7.79,44.36,69.39,51.78,1.59,106.25,68.58,35.04,4.22,76.87,39.53,53.25,34.22,2.41,34.92,0.532,0.397,0.726,0.521,0.61
67,Acre,1200401,Rio Branco,1,-9.97499,-67.8243,56.25,0.64,5.52,41.33,9.72,94.09,99.34,97.38,12.93,50.39,72.85,21.37,2.06,35.25,18.43,14.38,9.03,4.31,4.85,0.727,0.661,0.798,0.729,0.59
68,Acre,1200427,Rodrigues Alves,0,-7.73864,-72.661,27.32,0.72,4.67,18.85,8.51,71.48,89.56,95.36,4.01,85.52,69.18,32.9,4.22,78.78,52.64,60.87,31.26,3.09,40.9,0.567,0.477,0.736,0.518,0.63
69,Acre,1200435,Santa Rosa do Purus,0,-9.44652,-70.4902,28.06,1.15,50.67,18.71,4.72,65.93,54.3,91.82,2.33,92.26,71.86,24.26,3.28,79.49,39.87,73.4,26.97,1.75,63.05,0.517,0.34,0.781,0.519,0.78
70,Acre,1200500,Sena Madureira,0,-9.06596,-68.6571,30.66,0.48,12.33,23.02,7.56,82.48,82.95,91.77,4.01,64.85,73.59,19.48,2.7,58.9,40.8,37.59,24.75,4.54,21.19,0.603,0.456,0.81,0.593,0.54
71,Acre,1200450,Senador Guiomard,0,-10.1497,-67.7362,33.24,0.54,7.48,22.33,8.79,92.31,99.06,93.99,5.4,61.95,72.17,23.36,2.73,48.99,29.76,23.3,17.69,5.55,8.29,0.64,0.513,0.786,0.649,0.55
72,Acre,1200609,Tarauacá,0,-8.15697,-70.7722,24.42,0.74,29.37,15.49,7.19,60.4,70.47,84.42,3.42,85.98,68.21,36.4,4.89,73.09,41.95,54.76,31.09,3.95,34.59,0.539,0.392,0.72,0.554,0.65
73,Acre,1200708,Xapuri,0,-10.6516,-68.4969,31.63,0.59,6.94,20.9,7.66,86.75,84.1,91.56,5.32,64.36,71.38,25.69,2.88,58.29,17.68,33.64,22.24,5.49,19.07,0.599,0.448,0.773,0.621,0.58
74,Amazonas,1300029,Alvarães,0,-3.22727,-64.8007,26.72,0.54,3.56,16.2,5.96,48.93,94.36,88.14,3.36,91.67,71.69,22.28,3.43,81.17,44.97,60.76,20.55,3.23,30.88,0.527,0.377,0.778,0.499,0.58
75,Amazonas,1300060,Amaturá,0,-3.37455,-68.2005,31.12,0.73,6.1,22.89,7.18,66.65,77.53,73.1,3.71,74.76,71.36,23.22,3.79,82.44,26.95,62.64,22.4,3.51,42.81,0.56,0.455,0.773,0.499,0.64
76,Amazonas,1300086,Anamã,0,-3.56697,-61.3963,40.12,0.62,14.08,28.74,8.65,58.47,93.25,96.3,4.73,74.76,69.48,28.89,3.6,71.21,38.88,51.08,15.84,4.1,32.44,0.594,0.526,0.741,0.537,0.58
77,Amazonas,1300102,Anori,0,-3.74603,-61.6575,32.07,0.66,2.91,17.61,7.27,66.86,88.44,75.11,3.86,74.03,70.42,25.97,3.76,74.62,29.24,52.29,19.62,4.31,32.25,0.561,0.433,0.757,0.54,0.6
78,Amazonas,1300144,Apuí,0,-7.19409,-59.896,30.67,0.56,11.21,17.65,8.74,86.73,82.12,91.35,4.06,51.3,71.29,23.41,2.64,56.97,41.58,26.84,10.77,3.18,16.56,0.637,0.54,0.772,0.621,0.56
79,Amazonas,1300201,Atalaia do Norte,0,-4.37055,-70.1967,19.77,0.55,48.38,12.45,4.63,36.29,60.84,50.61,2.74,72.92,68.95,30.62,3.62,83.46,44.58,63.67,35.5,2.87,44.75,0.45,0.259,0.733,0.481,0.65
80,Amazonas,1300300,Autazes,0,-3.58574,-59.1256,31.02,0.62,12.06,16.69,8.11,57.01,81.35,90.34,3.9,80.29,72.91,19.07,4.24,73.21,54.16,51.58,15.76,4.96,34.3,0.577,0.446,0.799,0.539,0.59
81,Amazonas,1300409,Barcelos,0,-0.983373,-62.9311,24.92,0.77,31.77,13.65,4.34,49.81,75.46,92.93,3.41,61.28,68.69,31.5,2.72,74.74,14.04,60.97,34.16,3.89,47.37,0.5,0.315,0.728,0.545,0.74
82,Amazonas,1300508,Barreirinha,0,-2.79886,-57.0679,37.0,0.66,14.79,19.86,8.21,55.14,78.85,67.93,3.31,94.49,71.45,22.97,4.86,83.65,47.48,68.75,10.28,4.88,46.23,0.574,0.522,0.774,0.469,0.6
83,Amazonas,1300607,Benjamin Constant,0,-4.37768,-70.0342,33.09,0.5,14.47,21.92,8.79,53.48,86.36,76.16,3.76,81.57,70.78,24.87,4.33,78.14,43.94,52.87,21.89,4.07,28.08,0.574,0.471,0.763,0.526,0.56
84,Amazonas,1300631,Beruri,0,-3.89874,-61.3616,19.88,0.73,20.28,13.92,6.83,54.61,83.61,76.23,2.32,94.16,68.85,30.96,4.58,78.54,31.46,64.14,25.46,4.1,43.29,0.506,0.346,0.731,0.512,0.65
85,Amazonas,1300680,Boa Vista do Ramos,0,-2.97409,-57.5873,32.91,0.62,8.98,17.73,7.83,58.8,77.04,88.32,3.24,83.5,69.99,27.26,4.47,80.82,48.58,61.77,7.97,4.06,40.05,0.565,0.484,0.75,0.496,0.59
86,Amazonas,1300706,Boca do Acre,0,-8.74232,-67.3919,29.72,0.72,8.69,18.85,7.53,67.42,83.51,74.81,6.27,69.58,71.59,22.57,3.04,72.02,36.89,49.75,27.04,4.89,27.28,0.588,0.455,0.777,0.576,0.63
87,Amazonas,1300805,Borba,0,-4.39154,-59.5874,29.46,0.72,9.47,18.57,7.92,54.65,81.19,95.38,3.08,79.27,71.53,22.73,4.04,76.04,46.19,56.26,15.8,4.58,36.98,0.56,0.425,0.776,0.532,0.64
88,Amazonas,1300839,Caapiranga,0,-3.31537,-61.2206,30.47,0.53,8.67,22.7,7.77,29.69,91.4,83.59,4.19,73.19,71.49,22.85,4.05,71.15,32.74,50.44,15.07,3.69,29.67,0.569,0.436,0.775,0.544,0.58
89,Amazonas,1300904,Canutama,0,-6.52582,-64.3953,25.39,0.67,2.89,14.56,6.86,73.71,79.38,72.04,2.77,59.59,70.1,26.92,3.39,77.38,33.58,57.35,29.53,4.35,34.1,0.53,0.379,0.752,0.522,0.61
90,Amazonas,1301001,Carauari,0,-4.88161,-66.9086,27.81,0.55,2.94,17.16,7.22,64.62,92.57,91.3,5.04,81.66,69.68,28.23,4.3,75.35,38.15,48.31,28.03,3.9,23.92,0.549,0.416,0.745,0.534,0.54
91,Amazonas,1301100,Careiro,0,-3.76803,-60.369,32.93,0.63,9.11,15.85,7.91,56.5,88.45,98.47,2.55,68.04,71.76,22.1,3.17,76.77,53.81,60.88,13.72,4.31,41.27,0.557,0.431,0.779,0.515,0.66
92,Amazonas,1301159,Careiro da Várzea,0,-3.314,-59.5557,27.81,0.49,10.72,16.52,7.62,14.95,88.19,88.71,3.17,62.49,71.76,22.1,3.3,75.23,72.6,54.97,16.46,5.6,30.36,0.568,0.45,0.779,0.523,0.57
93,Amazonas,1301209,Coari,0,-4.09412,-63.1441,33.26,0.69,7.93,22.29,7.65,32.29,88.37,85.17,5.17,68.5,71.79,20.96,3.15,63.59,28.24,40.38,17.02,3.65,21.98,0.586,0.425,0.78,0.606,0.64
94,Amazonas,1301308,Codajás,0,-3.83053,-62.0658,28.59,0.69,0.9,20.93,7.94,63.71,92.78,88.13,3.62,70.28,71.49,22.85,3.74,77.17,17.27,54.32,18.71,3.98,29.32,0.563,0.421,0.775,0.546,0.61
95,Amazonas,1301407,Eirunepé,0,-6.65677,-69.8662,28.22,0.67,13.42,21.7,7.73,52.29,82.73,45.84,5.51,79.67,70.37,26.1,4.03,74.5,37.26,55.41,32.99,3.87,32.2,0.563,0.431,0.756,0.548,0.62
96,Amazonas,1301506,Envira,0,-7.43789,-70.0281,23.23,0.7,23.31,16.69,6.33,44.82,73.34,91.75,4.92,82.08,68.63,31.7,4.18,80.07,43.97,57.67,32.75,3.57,35.87,0.509,0.349,0.727,0.521,0.64
97,Amazonas,1301605,Fonte Boa,0,-2.52342,-66.0942,25.59,0.62,8.15,16.14,7.37,67.64,88.32,66.57,3.1,80.4,68.13,33.44,4.07,78.03,28.37,59.94,24.69,3.99,37.8,0.53,0.4,0.719,0.518,0.62
98,Amazonas,1301654,Guajará,0,-7.53797,-72.5907,24.14,0.89,16.98,16.72,6.97,62.11,66.5,78.49,3.9,82.74,70.7,25.1,3.85,83.14,70.08,67.87,31.5,3.18,51.48,0.532,0.387,0.762,0.51,0.74
99,Amazonas,1301704,Humaitá,0,-7.51171,-63.0327,36.45,0.84,12.23,25.23,7.53,77.32,90.73,91.88,6.53,66.1,72.47,20.2,2.99,63.98,26.98,41.89,16.95,4.28,25.86,0.605,0.451,0.791,0.621,0.66
100,Amazonas,1301803,Ipixuna,0,-7.04791,-71.6934,21.82,0.54,17.16,15.43,5.51,41.52,66.44,74.46,2.29,91.7,71.32,23.33,4.05,86.43,53.7,68.07,38.41,2.91,39.53,0.481,0.302,0.772,0.476,0.58
101,Amazonas,1301852,Iranduba,0,-3.27479,-60.19,36.0,0.55,4.93,21.48,8.12,70.95,94.68,91.96,3.88,70.25,72.94,19.01,3.3,59.84,30.34,34.86,13.24,4.83,16.69,0.613,0.476,0.799,0.607,0.56
102,Amazonas,1301902,Itacoatiara,0,-3.13861,-58.4449,42.42,0.63,8.24,28.55,8.76,78.88,92.63,97.62,5.88,68.47,73.66,16.39,2.84,58.58,24.77,36.6,9.12,5.03,17.45,0.644,0.534,0.811,0.618,0.59
103,Amazonas,1301951,Itamarati,0,-6.43852,-68.2437,12.67,1.28,11.13,8.26,5.84,52.1,69.27,52.8,3.75,81.16,71.32,23.33,3.9,88.6,39.48,74.2,37.73,2.64,55.51,0.477,0.266,0.772,0.529,0.8
104,Amazonas,1302009,Itapiranga,0,-2.74081,-58.0293,45.48,0.81,1.61,32.25,8.16,82.78,89.43,91.65,5.21,71.05,72.54,20.03,3.4,69.41,37.49,49.37,8.45,5.24,27.79,0.654,0.594,0.792,0.594,0.67
105,Amazonas,1302108,Japurá,0,-1.88237,-66.9291,22.11,0.66,17.11,11.04,6.09,48.06,86.57,43.83,3.79,77.78,69.85,27.72,3.79,80.03,32.9,52.07,27.92,2.62,22.55,0.522,0.345,0.748,0.552,0.59
106,Amazonas,1302207,Juruá,0,-3.48438,-66.0718,19.54,0.67,10.46,11.44,6.02,47.97,89.02,77.56,2.54,83.71,67.24,36.64,4.43,76.19,44.39,56.2,33.72,3.43,32.23,0.522,0.376,0.704,0.538,0.6
107,Amazonas,1302306,Jutaí,0,-2.75814,-66.7595,23.5,0.87,8.13,12.28,6.37,63.7,85.11,20.16,3.83,95.88,70.93,24.44,4.84,83.11,30.97,62.09,28.06,3.4,40.95,0.516,0.34,0.766,0.528,0.69
108,Amazonas,1302405,Lábrea,0,-7.26413,-64.7948,23.89,0.63,15.65,14.61,7.01,48.22,79.79,81.31,3.68,73.3,69.62,28.45,3.99,73.07,27.65,52.41,28.55,4.22,33.28,0.531,0.374,0.744,0.538,0.59
109,Amazonas,1302504,Manacapuru,0,-3.29066,-60.6216,34.35,0.56,4.66,22.49,8.63,70.31,90.08,93.78,3.59,71.65,72.69,18.45,2.77,61.05,26.84,35.47,15.55,4.88,16.16,0.614,0.481,0.795,0.604,0.56
110,Amazonas,1302553,Manaquiri,0,-3.44078,-60.4612,31.97,0.59,13.22,14.84,8.15,41.09,75.21,97.6,2.3,73.52,69.88,27.62,3.29,73.87,56.76,50.5,10.63,4.49,21.99,0.596,0.51,0.748,0.556,0.57
111,Amazonas,1302603,Manaus,1,-3.11866,-60.0212,65.76,0.68,2.94,49.86,9.51,89.65,99.63,98.29,10.97,47.41,74.54,15.2,2.06,33.5,6.45,12.9,3.78,3.88,3.75,0.737,0.658,0.826,0.738,0.61
112,Amazonas,1302702,Manicoré,0,-5.80462,-61.2895,29.57,0.64,14.06,19.49,8.2,61.74,83.5,90.5,4.35,71.63,69.83,27.77,3.14,68.47,52.96,47.59,16.75,4.38,26.72,0.582,0.456,0.747,0.58,0.6
113,Amazonas,1302801,Maraã,0,-1.85313,-65.573,25.84,0.78,7.32,14.09,6.02,49.73,90.05,83.79,1.96,83.01,70.78,24.87,3.96,85.3,24.7,70.9,18.01,2.55,52.14,0.498,0.348,0.763,0.466,0.69
114,Amazonas,1302900,Maués,0,-3.39289,-57.7067,33.35,0.76,22.94,20.57,9.26,53.85,76.82,97.43,5.56,82.46,72.97,18.93,4.14,76.2,49.39,54.17,10.28,4.7,34.31,0.588,0.464,0.8,0.549,0.64
115,Amazonas,1303007,Nhamundá,0,-2.20793,-56.7112,32.33,0.72,9.03,19.15,8.85,47.52,80.17,88.92,3.88,74.35,71.73,22.16,3.39,78.54,46.25,62.76,8.94,5.56,43.78,0.586,0.503,0.779,0.513,0.65
116,Amazonas,1303106,Nova Olinda do Norte,0,-3.90037,-59.094,28.12,0.68,15.03,16.71,6.99,55.94,67.19,95.65,4.05,72.89,71.81,21.96,2.89,75.71,62.25,58.68,12.82,4.45,33.18,0.558,0.412,0.78,0.541,0.63
117,Amazonas,1303205,Novo Airão,0,-2.63637,-60.9434,31.43,0.56,9.45,21.89,7.37,65.45,86.35,97.46,5.95,68.78,71.55,22.68,3.52,69.78,29.18,47.65,15.52,4.56,30.88,0.57,0.434,0.776,0.551,0.59
118,Amazonas,1303304,Novo Aripuanã,0,-5.12593,-60.3732,29.12,0.57,10.41,19.92,7.58,62.61,79.16,42.41,3.49,70.09,70.52,25.66,3.73,72.69,42.07,51.32,19.73,4.71,31.0,0.554,0.421,0.759,0.532,0.57
119,Amazonas,1303403,Parintins,0,-2.63741,-56.729,47.43,0.6,12.14,31.45,9.45,73.24,84.92,91.0,7.24,73.62,72.97,18.93,3.27,66.21,36.06,42.12,6.03,4.9,22.81,0.658,0.605,0.8,0.589,0.59
120,Amazonas,1303502,Pauini,0,-7.71311,-66.992,24.79,1.02,17.24,19.07,4.72,49.52,69.96,49.27,3.75,81.32,68.45,32.32,3.71,80.66,35.08,65.4,29.44,2.95,47.23,0.496,0.317,0.724,0.531,0.72
121,Amazonas,1303536,Presidente Figueiredo,0,-2.02981,-60.0234,45.4,0.46,8.12,27.89,8.46,83.42,94.6,100.0,4.86,60.76,73.1,18.6,2.88,49.86,15.92,25.21,7.25,3.15,12.83,0.647,0.538,0.802,0.627,0.52
122,Amazonas,1303569,Rio Preto da Eva,0,-2.7045,-59.6858,39.96,0.47,7.5,22.15,8.49,79.11,96.48,91.76,2.58,58.28,72.12,21.13,2.6,59.58,21.13,35.59,11.25,3.51,18.28,0.611,0.493,0.785,0.59,0.55
123,Amazonas,1303601,Santa Isabel do Rio Negro,0,-0.410824,-65.0092,28.6,0.65,54.43,17.81,4.8,45.24,52.51,94.26,3.61,92.7,69.2,29.81,2.87,84.32,10.38,70.85,33.11,3.98,55.11,0.479,0.323,0.737,0.461,0.72
124,Amazonas,1303700,Santo Antônio do Içá,0,-3.09544,-67.9463,23.99,0.7,6.53,14.34,6.49,50.55,89.18,65.57,2.45,84.71,70.52,25.65,3.21,86.79,65.89,73.16,21.31,3.1,55.83,0.49,0.353,0.759,0.438,0.67
125,Amazonas,1303809,São Gabriel da Cachoeira,0,-0.11909,-67.084,39.03,1.12,36.82,23.47,7.5,43.43,65.48,91.47,4.38,74.34,71.59,20.7,2.43,74.33,10.81,56.81,14.66,4.58,42.56,0.609,0.476,0.777,0.61,0.8
126,Amazonas,1303908,São Paulo de Olivença,0,-3.47292,-68.9646,30.01,0.65,21.08,20.06,6.73,38.51,70.07,0.06,2.12,81.71,71.77,22.07,3.65,84.66,51.09,66.11,22.91,3.9,47.99,0.521,0.386,0.78,0.471,0.64
127,Amazonas,1303957,São Sebastião do Uatumã,0,-2.55915,-57.8731,35.47,0.61,4.52,22.0,8.01,68.33,75.85,91.67,2.39,76.5,69.34,29.35,4.05,72.94,35.06,46.65,10.16,3.32,20.35,0.577,0.464,0.739,0.561,0.58
128,Amazonas,1304005,Silves,0,-2.81748,-58.248,43.09,0.59,0.72,25.45,9.54,54.15,81.81,97.7,6.61,78.77,72.47,20.2,4.44,72.6,52.6,51.94,7.81,4.45,25.98,0.632,0.584,0.791,0.546,0.56
129,Amazonas,1304062,Tabatinga,0,-4.2416,-69.9383,44.1,0.81,9.31,30.23,8.26,73.56,92.41,92.08,5.96,72.87,71.12,23.88,3.16,69.08,36.62,46.19,14.38,3.49,25.83,0.616,0.505,0.769,0.602,0.65
130,Amazonas,1304104,Tapauá,0,-5.62085,-63.1808,21.44,0.65,20.66,14.01,6.35,47.23,80.77,80.94,3.59,75.8,66.61,39.06,4.37,76.76,31.92,58.07,30.86,3.33,39.66,0.502,0.355,0.694,0.512,0.6
131,Amazonas,1304203,Tefé,0,-3.36822,-64.7193,39.07,0.7,7.63,27.21,8.49,79.11,96.39,79.26,7.99,75.27,73.04,18.74,3.44,59.83,19.28,34.38,14.21,3.88,15.15,0.639,0.511,0.801,0.637,0.62
132,Amazonas,1304237,Tonantins,0,-2.86582,-67.7919,24.72,0.47,6.52,16.22,7.3,32.38,79.38,61.9,4.56,82.87,71.74,22.14,4.33,78.39,72.56,49.59,19.82,3.27,30.93,0.548,0.416,0.779,0.508,0.54
133,Amazonas,1304260,Uarini,0,-2.99609,-65.1133,23.26,0.56,10.01,15.11,6.94,60.95,90.96,79.99,2.79,84.85,68.43,32.38,4.35,80.27,23.73,55.68,18.81,2.95,26.51,0.527,0.378,0.724,0.535,0.61
134,Amazonas,1304302,Urucará,0,-2.52936,-57.7538,44.37,0.69,2.79,27.8,8.87,80.65,93.63,96.36,3.58,80.49,70.26,26.44,4.37,74.33,29.65,49.07,8.04,4.93,31.33,0.62,0.575,0.754,0.551,0.6
135,Amazonas,1304401,Urucurituba,0,-3.12841,-58.1496,33.11,0.63,3.66,19.55,8.28,64.7,79.07,76.41,2.86,75.35,71.53,22.73,4.01,72.57,33.22,49.82,9.18,4.88,32.03,0.588,0.487,0.776,0.538,0.58
136,Roraima,1400050,Alto Alegre,0,2.98858,-61.3072,26.6,0.63,55.83,16.71,5.66,65.14,54.83,98.69,3.54,87.23,73.78,16.61,3.57,76.79,21.22,61.63,40.06,4.0,51.42,0.542,0.379,0.813,0.518,0.73
137,Roraima,1400027,Amajari,0,3.64571,-61.3692,21.05,0.65,57.52,12.58,4.72,55.65,48.19,100.0,1.3,88.88,73.9,16.32,4.06,86.49,26.96,75.51,38.64,3.88,59.89,0.484,0.319,0.815,0.437,0.75
138,Roraima,1400100,Boa Vista,1,2.82384,-60.6753,64.71,0.64,3.66,50.76,9.5,98.7,99.29,97.76,12.99,49.68,73.95,16.16,2.18,32.27,4.18,13.61,5.83,3.29,5.03,0.752,0.708,0.816,0.737,0.58
139,Roraima,1400159,Bonfim,0,3.36161,-59.8333,33.63,1.0,34.71,20.57,8.2,91.78,70.62,80.78,4.95,86.2,73.52,17.21,3.45,71.87,40.25,54.19,13.26,4.19,34.94,0.626,0.509,0.809,0.597,0.72
140,Roraima,1400175,Cantá,0,2.60994,-60.6058,33.32,0.77,23.19,21.82,8.58,93.26,81.61,97.59,4.63,73.28,73.19,17.99,3.45,68.88,38.43,47.29,17.22,4.24,33.95,0.619,0.509,0.803,0.581,0.66
141,Roraima,1400209,Caracaraí,0,1.82766,-61.1304,38.06,0.56,11.09,26.15,8.07,88.5,89.18,95.61,4.61,67.47,71.77,21.65,3.47,61.64,21.66,35.46,13.21,3.77,17.05,0.624,0.518,0.78,0.601,0.56
142,Roraima,1400233,Caroebe,0,0.884203,-59.6959,34.34,0.54,1.42,20.7,9.57,94.48,93.27,83.95,5.13,62.18,72.48,19.77,3.29,61.05,25.54,36.44,12.18,3.93,14.79,0.639,0.549,0.791,0.6,0.55
143,Roraima,1400282,Iracema,0,2.18305,-61.0415,28.41,0.56,23.63,16.89,7.45,80.99,76.84,96.26,3.37,62.85,73.61,16.99,2.64,67.8,12.25,47.85,30.23,3.68,36.27,0.582,0.434,0.81,0.56,0.62
144,Roraima,1400308,Mucajaí,0,2.43998,-60.9096,34.48,0.93,10.3,24.78,8.38,94.38,91.56,94.9,5.29,61.54,73.79,16.58,3.27,60.16,16.82,37.16,17.2,4.54,22.23,0.665,0.547,0.813,0.661,0.71
145,Roraima,1400407,Normandia,0,3.8853,-59.6204,36.8,0.92,53.6,23.29,7.52,65.16,53.71,66.36,3.91,104.9,73.06,18.32,3.12,77.36,35.77,64.43,12.28,3.3,47.59,0.594,0.502,0.801,0.52,0.7
146,Roraima,1400456,Pacaraima,0,4.4799,-61.1477,45.27,1.09,26.86,28.83,8.52,79.57,74.53,95.3,4.56,83.87,72.29,20.27,3.57,67.64,31.99,51.71,9.79,3.0,39.16,0.65,0.558,0.788,0.624,0.74
147,Roraima,1400472,Rorainópolis,0,0.939956,-60.4389,35.17,0.6,30.23,21.12,7.54,87.9,91.0,98.17,5.59,58.77,72.86,18.8,2.84,65.32,37.15,42.66,14.57,3.16,26.59,0.619,0.519,0.798,0.574,0.57
148,Roraima,1400506,São João da Baliza,0,0.951659,-59.9133,40.82,0.52,9.03,27.86,8.88,93.77,92.38,87.44,6.63,59.78,71.81,21.53,2.49,56.19,9.65,31.23,11.49,3.78,13.96,0.655,0.587,0.78,0.614,0.53
149,Roraima,1400605,São Luiz,0,1.01019,-60.0419,40.52,0.56,2.41,25.7,8.18,94.87,96.51,88.77,6.17,47.86,72.29,20.27,2.37,60.11,12.03,33.52,12.2,3.76,18.06,0.649,0.574,0.788,0.605,0.55
150,Roraima,1400704,Uiramutã,0,4.60314,-60.1815,16.01,1.06,72.01,8.01,4.73,47.3,27.41,53.15,1.36,118.04,70.95,23.93,3.45,86.91,21.62,78.59,28.34,2.88,69.67,0.453,0.276,0.766,0.439,0.78
151,Pará,1500107,Abaetetuba,0,-1.72183,-48.8788,37.24,0.53,6.8,25.33,8.99,68.86,91.8,97.86,4.53,55.37,72.89,20.42,2.37,65.93,39.8,38.95,13.71,4.91,18.98,0.628,0.537,0.798,0.579,0.53
152,Pará,1500131,Abel Figueiredo,0,-4.95333,-48.3933,31.25,0.58,6.09,15.68,8.51,91.76,95.97,91.23,3.43,57.78,73.0,19.73,2.91,58.48,26.33,31.19,17.76,5.31,9.38,0.622,0.481,0.8,0.625,0.57
153,Pará,1500206,Acará,0,-1.95383,-48.1985,17.47,0.44,8.69,9.06,6.03,64.01,73.66,78.48,1.88,69.23,70.44,27.51,3.26,76.53,55.71,53.47,21.31,4.75,27.51,0.506,0.332,0.757,0.517,0.53
154,Pará,1500305,Afuá,0,-0.154874,-50.3861,15.49,0.65,9.62,10.53,6.59,26.56,70.23,96.9,2.3,82.38,71.43,24.51,3.22,83.32,76.98,64.88,28.88,3.81,45.65,0.489,0.311,0.774,0.485,0.66
155,Pará,1500347,Água Azul do Norte,0,-6.79053,-50.4791,19.48,0.39,11.74,6.21,7.48,94.37,94.23,93.72,0.7,43.59,72.83,20.58,2.25,60.38,19.47,33.99,11.77,2.77,22.36,0.564,0.399,0.797,0.563,0.49
156,Pará,1500404,Alenquer,0,-1.94623,-54.7384,27.41,0.62,12.47,16.32,7.82,79.14,73.7,81.15,3.01,76.46,71.72,23.67,3.33,75.77,59.29,52.34,15.6,5.76,34.14,0.564,0.436,0.779,0.529,0.58
157,Pará,1500503,Almeirim,0,-1.52904,-52.5788,42.88,0.79,5.51,31.81,8.61,78.03,86.42,91.01,7.56,64.02,73.55,18.72,2.53,57.77,33.56,38.3,13.73,3.72,20.47,0.642,0.497,0.809,0.659,0.65
158,Pará,1500602,Altamira,0,-3.20407,-52.21,41.43,0.54,12.24,25.15,8.65,86.79,92.81,91.05,5.9,53.81,73.64,18.55,2.35,45.82,24.32,22.38,12.45,4.39,11.25,0.665,0.548,0.811,0.662,0.56
159,Pará,1500701,Anajás,0,-0.996811,-49.9354,13.57,0.65,18.26,7.14,6.6,21.06,72.97,89.43,1.6,88.3,71.43,24.51,4.09,82.27,76.03,62.02,32.98,3.49,38.53,0.484,0.29,0.774,0.506,0.62
160,Pará,1500800,Ananindeua,0,-1.36391,-48.3743,64.22,0.48,2.36,43.6,9.65,92.1,99.85,97.83,7.27,43.01,74.24,18.46,1.7,37.46,9.43,13.94,3.44,4.06,4.16,0.718,0.658,0.821,0.684,0.52
161,Pará,1500859,Anapu,0,-3.46985,-51.2003,22.35,0.56,29.51,11.43,7.63,84.69,75.5,74.44,2.53,64.07,72.25,22.17,3.07,66.96,48.31,44.8,19.24,3.18,26.31,0.548,0.371,0.788,0.563,0.58
162,Pará,1500909,Augusto Corrêa,0,-1.05109,-46.6147,20.05,0.53,31.63,10.52,7.46,82.76,90.35,59.19,1.61,74.78,71.3,24.89,3.06,81.91,49.51,62.59,26.26,4.89,40.76,0.52,0.38,0.772,0.48,0.56
163,Pará,1500958,Aurora do Pará,0,-2.14898,-47.5677,21.89,0.52,10.91,11.32,6.55,83.68,80.6,84.48,2.4,64.17,71.38,24.65,2.86,78.58,38.79,55.64,23.45,4.57,33.58,0.519,0.358,0.773,0.504,0.56
164,Pará,1501006,Aveiro,0,-3.60841,-55.3199,29.91,0.61,26.01,11.98,7.82,66.97,76.24,53.95,2.24,81.66,69.87,29.36,3.7,84.82,61.45,65.69,13.71,5.17,41.63,0.541,0.45,0.748,0.47,0.6
165,Pará,1501105,Bagre,0,-1.90057,-50.1987,16.23,0.42,23.3,9.77,5.57,43.17,64.35,82.39,1.21,85.18,71.59,24.04,3.76,85.93,69.04,59.68,23.98,3.09,28.34,0.471,0.28,0.777,0.481,0.48
166,Pará,1501204,Baião,0,-2.79021,-49.6694,34.06,0.51,8.33,22.24,8.19,80.15,88.35,66.7,3.25,65.28,71.18,25.26,2.63,70.94,33.51,47.95,13.93,4.39,28.21,0.578,0.467,0.77,0.538,0.53
167,Pará,1501253,Bannach,0,-7.34779,-50.3959,24.01,0.68,17.34,15.25,7.8,87.7,86.39,87.61,1.77,54.62,72.06,22.7,3.16,59.56,19.99,34.52,18.28,4.69,17.47,0.594,0.42,0.784,0.635,0.62
168,Pará,1501303,Barcarena,0,-1.51187,-48.6195,50.93,0.55,2.27,32.23,8.93,82.0,96.48,98.61,4.96,55.0,73.04,20.04,2.37,49.56,26.34,26.03,8.52,3.51,10.49,0.662,0.564,0.801,0.643,0.55
169,Pará,1501402,Belém,1,-1.4554,-48.4898,67.0,0.69,2.51,49.25,9.64,96.09,99.76,97.15,14.33,42.06,74.33,17.25,1.69,33.26,4.73,13.04,3.33,6.3,3.54,0.746,0.673,0.822,0.751,0.61
170,Pará,1501451,Belterra,0,-2.63609,-54.9374,31.52,0.6,16.27,20.21,9.05,68.7,87.89,67.13,3.04,70.3,71.51,24.26,3.19,72.35,50.79,47.03,12.4,6.53,28.5,0.588,0.478,0.775,0.548,0.58
171,Pará,1501501,Benevides,0,-1.36183,-48.2434,49.49,0.41,6.8,29.25,9.42,94.01,99.77,93.52,4.51,51.61,72.9,20.39,2.33,51.03,16.13,21.31,6.83,4.46,6.95,0.665,0.592,0.798,0.623,0.48
172,Pará,1501576,Bom Jesus do Tocantins,0,-5.0424,-48.6047,25.87,0.48,21.16,15.51,7.35,88.44,82.83,86.54,3.61,56.41,71.61,23.98,2.8,58.75,30.1,31.11,21.14,5.18,12.98,0.589,0.437,0.777,0.601,0.52
173,Pará,1501600,Bonito,0,-1.36745,-47.3066,25.99,0.44,37.49,14.33,7.52,88.71,95.82,77.82,1.38,58.58,71.22,25.13,2.67,74.47,42.65,47.84,21.8,4.56,22.74,0.546,0.398,0.77,0.531,0.5
174,Pará,1501709,Bragança,0,-1.06126,-46.7826,34.31,0.61,21.24,22.87,9.31,73.73,95.73,83.88,4.47,60.62,70.27,28.07,2.71,66.91,33.48,41.59,15.64,5.38,20.59,0.6,0.486,0.755,0.589,0.58
175,Pará,1501725,Brasil Novo,0,-3.29792,-52.534,23.61,0.8,15.38,12.36,8.68,81.02,85.9,92.7,2.46,55.42,73.55,18.72,2.36,61.82,27.73,41.29,17.83,5.47,26.63,0.613,0.451,0.809,0.632,0.67
176,Pará,1501758,Brejo Grande do Araguaia,0,-5.69822,-48.4103,30.33,0.57,18.43,18.1,8.38,93.36,90.16,70.83,3.27,60.06,69.57,30.35,3.12,64.88,41.91,40.26,19.79,5.32,20.34,0.591,0.473,0.743,0.588,0.57
177,Pará,1501782,Breu Branco,0,-3.77191,-49.5735,24.28,0.52,17.35,13.06,8.03,88.19,97.4,98.1,2.11,66.22,71.87,23.24,3.4,71.34,45.37,43.11,20.26,3.74,20.91,0.568,0.422,0.781,0.555,0.53
178,Pará,1501808,Breves,0,-1.68036,-50.4791,21.23,0.59,13.89,12.77,6.54,45.63,74.62,95.17,2.97,81.75,71.65,23.86,3.32,79.45,60.55,56.22,24.74,4.21,32.09,0.503,0.312,0.778,0.524,0.58
179,Pará,1501907,Bujaru,0,-1.51762,-48.0381,30.5,0.42,7.95,14.24,7.65,73.37,81.41,85.04,1.37,71.53,71.76,23.56,3.2,81.17,54.04,54.0,14.57,5.08,31.25,0.552,0.437,0.779,0.495,0.52
180,Pará,1502004,Cachoeira do Arari,0,-1.01226,-48.9503,27.27,0.67,7.85,11.53,7.07,76.66,72.76,86.9,1.76,63.44,71.65,23.86,3.1,73.24,46.84,54.4,13.64,5.96,36.27,0.546,0.398,0.778,0.525,0.6
181,Pará,1501956,Cachoeira do Piriá,0,-1.75974,-46.5459,14.79,0.47,32.8,8.69,6.67,71.32,65.68,77.52,0.66,74.59,71.73,23.65,3.52,89.24,75.78,67.43,28.83,2.61,43.93,0.473,0.303,0.779,0.449,0.58
182,Pará,1502103,Cametá,0,-2.24295,-49.4979,32.99,0.61,8.88,20.97,8.58,62.32,85.35,88.13,3.15,69.15,70.21,28.26,2.93,75.25,42.24,50.71,10.53,5.29,29.03,0.577,0.474,0.754,0.538,0.58
183,Pará,1502152,Canaã dos Carajás,0,-6.49659,-49.8776,43.9,0.55,8.75,27.72,9.35,94.89,98.59,98.4,4.64,53.8,73.06,21.38,3.02,45.63,21.73,20.83,9.93,2.86,8.24,0.673,0.569,0.801,0.67,0.55
184,Pará,1502202,Capanema,0,-1.20529,-47.1778,43.82,0.53,14.37,27.7,9.6,90.45,99.0,96.27,3.68,52.88,72.62,21.14,2.05,56.52,21.88,30.91,13.81,6.23,14.23,0.655,0.58,0.794,0.61,0.53
185,Pará,1502301,Capitão Poço,0,-1.74785,-47.0629,23.5,0.7,29.13,14.86,7.93,86.31,90.75,98.87,2.7,61.74,69.8,29.58,2.63,73.18,35.45,50.15,23.98,5.16,25.24,0.548,0.385,0.747,0.573,0.62
186,Pará,1502400,Castanhal,0,-1.29797,-47.9167,48.71,0.53,8.57,31.09,9.91,92.91,99.51,96.08,5.72,49.38,72.97,18.59,2.01,48.59,19.78,22.93,7.81,4.82,7.15,0.673,0.582,0.8,0.654,0.54
187,Pará,1502509,Chaves,0,-0.164154,-49.987,10.0,0.7,17.42,3.46,4.95,27.88,62.55,77.52,1.43,78.63,71.15,25.33,2.53,78.69,85.36,63.04,27.07,4.3,43.41,0.453,0.234,0.769,0.516,0.67
188,Pará,1502608,Colares,0,-0.936423,-48.2803,35.83,0.57,10.8,20.42,9.5,88.59,95.48,88.93,2.95,65.66,70.8,26.4,3.01,74.47,37.01,51.27,10.36,7.29,26.14,0.602,0.528,0.763,0.541,0.56
189,Pará,1502707,Conceição do Araguaia,0,-8.26136,-49.2689,38.51,0.51,7.2,24.69,9.31,89.89,88.52,94.09,5.81,57.88,71.2,25.2,2.79,50.74,15.58,27.91,14.32,6.36,11.78,0.64,0.54,0.77,0.631,0.54
190,Pará,1502756,Concórdia do Pará,0,-1.99238,-47.9422,27.84,0.46,8.94,15.46,7.89,82.49,91.68,83.71,2.17,65.93,69.45,30.73,2.95,69.47,58.67,38.98,20.42,4.8,15.39,0.566,0.438,0.741,0.56,0.5
191,Pará,1502764,Cumaru do Norte,0,-7.81097,-50.7698,17.35,0.69,23.65,7.45,6.97,80.98,71.58,78.53,1.92,50.48,72.71,20.9,3.17,56.77,21.31,36.37,25.2,2.41,24.58,0.55,0.33,0.795,0.635,0.64
192,Pará,1502772,Curionópolis,0,-6.09965,-49.6068,31.5,0.54,13.97,18.86,9.43,69.93,99.22,73.45,2.97,60.99,73.53,18.78,2.82,62.14,40.46,34.88,17.98,6.53,18.69,0.636,0.536,0.809,0.592,0.54
193,Pará,1502806,Curralinho,0,-1.81179,-49.7952,18.38,0.58,13.64,11.03,7.05,33.84,73.05,69.27,2.6,86.85,71.15,25.33,4.12,79.52,68.4,60.34,21.6,3.8,35.17,0.502,0.323,0.769,0.508,0.57
194,Pará,1502855,Curuá,0,-1.88775,-55.1168,29.38,0.64,14.4,18.68,8.94,78.44,84.34,36.72,5.1,78.21,71.8,23.42,3.68,83.51,66.25,61.12,14.43,4.51,38.99,0.578,0.495,0.78,0.501,0.6
195,Pará,1502905,Curuçá,0,-0.733214,-47.8515,35.5,0.61,20.85,20.72,8.16,91.51,98.63,80.59,1.29,65.0,70.48,27.39,2.98,73.92,21.72,50.49,10.83,7.28,27.54,0.582,0.48,0.758,0.542,0.56
196,Pará,1502939,Dom Eliseu,0,-4.19944,-47.8245,31.99,0.48,24.17,17.72,8.46,83.71,96.18,86.19,4.06,56.42,70.8,26.4,2.69,61.28,49.92,28.87,17.67,3.14,8.74,0.615,0.502,0.763,0.606,0.52
197,Pará,1502954,Eldorado do Carajás,0,-6.10389,-49.3553,20.47,0.56,10.73,10.19,7.99,91.16,90.13,53.35,2.17,63.33,70.42,27.59,3.42,67.97,43.64,44.12,21.29,3.97,20.35,0.56,0.405,0.757,0.572,0.57
198,Pará,1503002,Faro,0,-2.16805,-56.7405,34.46,0.56,5.15,21.44,8.1,76.32,85.28,54.08,3.93,76.11,70.35,27.8,3.69,78.93,40.52,55.62,10.51,5.22,38.39,0.563,0.47,0.756,0.501,0.56
199,Pará,1503044,Floresta do Araguaia,0,-7.55335,-49.7125,25.0,0.66,20.76,14.81,7.98,68.6,81.47,54.34,4.02,57.66,72.52,21.42,3.13,69.03,27.9,46.37,18.76,4.48,29.23,0.583,0.437,0.792,0.573,0.62
200,Pará,1503077,Garrafão do Norte,0,-1.92986,-47.0505,20.21,0.51,40.26,11.54,7.0,80.5,79.33,53.43,2.55,69.99,70.75,26.56,3.07,75.18,56.29,49.27,30.5,4.68,24.06,0.526,0.353,0.763,0.54,0.55
201,Pará,1503093,Goianésia do Pará,0,-3.84338,-49.0974,23.36,0.47,24.06,12.67,7.3,85.42,97.16,88.59,2.09,56.91,69.58,30.31,2.91,63.51,40.27,35.6,22.67,3.36,16.34,0.56,0.404,0.743,0.585,0.54
202,Pará,1503101,Gurupá,0,-1.41412,-51.6338,18.33,0.49,8.43,10.35,6.23,39.19,73.5,96.62,1.27,81.3,71.59,24.04,3.37,75.96,62.89,54.73,24.82,4.09,33.07,0.509,0.333,0.777,0.51,0.56
203,Pará,1503200,Igarapé-Açu,0,-1.12539,-47.626,33.16,0.58,31.87,19.34,8.47,85.97,94.98,90.37,2.8,57.27,69.55,30.41,2.54,68.84,31.38,42.96,15.57,6.36,17.77,0.595,0.49,0.743,0.579,0.56
204,Pará,1503309,Igarapé-Miri,0,-1.97533,-48.9575,22.59,0.46,9.77,14.3,7.27,47.69,82.56,90.63,2.47,63.98,71.18,25.26,2.88,77.97,53.81,53.09,19.06,5.19,29.57,0.547,0.413,0.77,0.514,0.53
205,Pará,1503408,Inhangapi,0,-1.4349,-47.9114,31.41,0.48,21.31,19.28,8.27,77.37,92.2,95.78,2.66,59.44,69.88,29.31,2.7,71.17,40.39,43.21,15.61,5.76,21.51,0.572,0.456,0.748,0.55,0.52
206,Pará,1503457,Ipixuna do Pará,0,-2.55992,-47.5059,14.74,0.46,29.05,6.89,6.21,76.56,77.37,83.44,1.78,60.67,70.44,27.51,2.25,79.43,38.22,52.27,22.82,2.76,30.85,0.489,0.304,0.757,0.508,0.57
207,Pará,1503507,Irituia,0,-1.76984,-47.446,23.63,0.58,6.98,13.71,8.19,82.58,91.26,87.16,2.13,67.75,70.75,26.56,2.95,76.39,37.82,53.19,19.65,6.25,29.98,0.559,0.427,0.763,0.536,0.58
208,Pará,1503606,Itaituba,0,-4.2667,-55.9926,36.29,0.58,9.12,19.29,8.6,85.39,94.58,93.05,4.03,55.3,72.97,18.59,2.43,50.38,35.96,24.77,13.84,4.0,11.47,0.64,0.51,0.8,0.644,0.57
209,Pará,1503705,Itupiranga,0,-5.13272,-49.3358,22.6,0.6,14.63,12.77,7.08,83.72,88.57,82.45,2.07,66.31,69.73,29.8,3.01,75.34,54.04,51.56,23.12,4.25,31.65,0.528,0.364,0.746,0.543,0.62
210,Pará,1503754,Jacareacanga,0,-6.21469,-57.7544,17.28,0.98,39.71,8.45,5.91,68.44,85.15,68.44,1.24,56.87,73.0,19.81,2.79,68.61,36.36,52.6,27.41,2.17,42.41,0.505,0.279,0.8,0.577,0.69
211,Pará,1503804,Jacundá,0,-4.44617,-49.1153,30.44,0.61,15.67,17.21,8.09,91.28,97.42,90.81,2.55,54.19,70.14,28.48,2.23,57.57,33.18,31.68,15.98,4.19,11.94,0.622,0.509,0.752,0.628,0.59
212,Pará,1503903,Juruti,0,-2.16347,-56.0889,33.05,0.64,18.43,19.71,9.03,68.19,81.49,96.72,3.08,79.01,70.35,27.8,3.35,74.17,46.93,49.58,8.9,4.36,28.55,0.592,0.501,0.756,0.547,0.59
213,Pará,1504000,Limoeiro do Ajuru,0,-1.8985,-49.3903,24.94,0.58,11.55,15.88,7.79,24.73,79.52,95.52,3.38,72.76,70.21,28.26,3.43,80.77,72.22,63.67,14.75,4.11,38.31,0.541,0.425,0.754,0.493,0.58
214,Pará,1504059,Mãe do Rio,0,-2.05683,-47.5601,29.76,0.62,12.79,20.07,7.71,90.17,95.17,92.02,4.0,60.85,70.75,26.56,2.51,62.61,33.86,35.53,17.6,5.62,14.14,0.599,0.458,0.763,0.615,0.58
215,Pará,1504109,Magalhães Barata,0,-0.803391,-47.6014,32.14,0.55,35.56,19.79,8.66,93.5,98.1,72.65,2.09,68.47,73.06,21.38,3.02,74.53,18.33,50.81,10.63,7.52,31.31,0.597,0.507,0.801,0.524,0.54
216,Pará,1504208,Marabá,0,-5.38075,-49.1327,46.68,0.61,7.73,30.61,8.53,91.19,96.84,87.39,5.4,54.15,72.09,23.05,2.53,45.91,27.16,23.53,11.36,3.67,10.34,0.668,0.564,0.785,0.673,0.58
217,Pará,1504307,Maracanã,0,-0.778899,-47.452,28.36,0.6,39.6,14.56,8.49,80.26,92.3,67.34,2.08,69.65,70.85,26.23,2.82,76.97,35.86,54.06,12.0,7.29,31.11,0.57,0.454,0.764,0.534,0.59
218,Pará,1504406,Marapanim,0,-0.714702,-47.7034,35.6,0.56,26.32,19.34,9.16,88.6,98.44,91.54,2.13,64.61,70.61,26.98,2.63,66.47,31.45,43.46,9.44,7.92,20.6,0.609,0.521,0.76,0.57,0.54
219,Pará,1504422,Marituba,0,-1.36002,-48.3421,56.44,0.33,3.13,34.02,9.2,89.79,99.97,88.94,3.42,47.52,72.6,21.21,1.84,45.13,16.4,17.02,4.74,3.45,5.35,0.676,0.628,0.793,0.621,0.42
220,Pará,1504455,Medicilândia,0,-3.44637,-52.8875,21.16,0.64,20.17,9.99,7.81,76.29,86.56,77.56,1.23,55.29,72.99,20.16,2.75,63.49,35.07,39.49,18.35,3.87,23.69,0.582,0.408,0.8,0.605,0.61
221,Pará,1504505,Melgaço,0,-1.8032,-50.7149,10.23,0.5,19.6,6.98,5.51,21.93,64.06,83.13,2.04,88.05,71.57,24.1,3.87,89.26,78.93,73.43,36.68,2.61,43.92,0.418,0.207,0.776,0.454,0.55
222,Pará,1504604,Mocajuba,0,-2.5831,-49.5042,29.21,0.61,5.51,19.49,8.07,76.1,83.19,90.44,2.94,73.14,70.21,28.26,2.84,78.65,29.91,56.69,10.92,5.56,28.12,0.575,0.467,0.754,0.539,0.58
223,Pará,1504703,Moju,0,-1.88993,-48.7668,24.21,0.69,14.23,12.93,7.26,81.68,84.32,88.91,1.94,69.11,70.44,27.51,3.14,72.44,49.91,45.7,18.75,3.9,24.22,0.547,0.375,0.757,0.578,0.63
224,Pará,1504752,Mojuí dos Campos,0,-2.6822,-54.6425,,,,,,,,,,,,,,,,,,,,,,,,
225,Pará,1504802,Monte Alegre,0,-1.99768,-54.0724,31.29,0.58,6.08,18.38,8.8,79.96,82.69,75.21,2.92,65.81,70.86,26.21,2.92,73.56,49.6,51.73,14.27,6.23,31.58,0.589,0.495,0.764,0.541,0.59
226,Pará,1504901,Muaná,0,-1.53936,-49.2224,24.1,0.54,19.07,11.3,7.8,51.45,76.73,88.9,1.39,67.53,71.51,24.26,3.02,75.81,52.89,52.07,13.01,4.19,24.12,0.547,0.391,0.775,0.54,0.56
227,Pará,1504950,Nova Esperança do Piriá,0,-2.26693,-46.9731,16.91,0.66,33.32,9.84,6.53,81.75,73.4,90.28,2.6,69.65,70.44,27.51,3.47,84.51,70.82,64.94,26.32,2.77,46.55,0.502,0.346,0.757,0.482,0.63
228,Pará,1504976,Nova Ipixuna,0,-4.91622,-49.0822,23.77,0.62,9.99,11.3,7.73,87.59,93.88,87.79,2.64,61.97,70.98,25.85,3.37,67.93,40.27,44.7,21.91,4.96,18.07,0.581,0.435,0.766,0.59,0.59
229,Pará,1505007,Nova Timboteua,0,-1.20874,-47.3921,30.73,0.49,40.23,18.56,8.72,90.57,91.6,95.21,1.97,54.64,72.43,21.67,2.28,65.35,37.99,41.2,20.06,7.51,20.78,0.609,0.507,0.791,0.564,0.52
230,Pará,1505031,Novo Progresso,0,-7.14347,-55.3786,36.23,0.53,5.44,19.5,8.52,92.52,94.71,94.63,4.18,49.27,74.66,16.02,2.55,32.3,15.1,12.03,8.9,2.27,4.02,0.673,0.519,0.828,0.709,0.54
231,Pará,1505064,Novo Repartimento,0,-4.24749,-49.9499,22.61,0.56,18.49,11.84,6.82,78.96,87.86,88.2,2.32,64.88,69.48,30.64,3.22,71.32,39.7,46.1,20.58,3.65,26.59,0.537,0.376,0.741,0.557,0.59
232,Pará,1505106,Óbidos,0,-1.90107,-55.5208,29.86,0.65,20.11,17.94,8.89,63.35,77.46,81.92,1.99,70.51,70.35,27.8,3.64,74.44,46.92,48.27,12.68,6.03,24.98,0.594,0.499,0.756,0.556,0.59
233,Pará,1505205,Oeiras do Pará,0,-2.00358,-49.8628,19.47,0.54,15.61,12.64,7.46,67.95,74.52,88.37,2.49,85.3,70.21,28.26,4.0,79.4,56.45,59.37,18.43,3.9,35.57,0.507,0.344,0.754,0.502,0.56
234,Pará,1505304,Oriximiná,0,-1.75989,-55.8579,37.34,0.79,15.46,25.06,9.32,54.63,86.22,80.48,4.67,71.26,71.66,23.84,3.18,68.05,43.58,46.08,11.47,4.71,26.43,0.623,0.52,0.778,0.599,0.64
235,Pará,1505403,Ourém,0,-1.54168,-47.1126,26.34,0.7,36.49,16.41,8.43,87.49,97.4,95.5,1.91,63.81,68.63,33.56,2.83,72.19,40.13,48.02,20.61,6.22,25.23,0.568,0.438,0.727,0.575,0.62
236,Pará,1505437,Ourilândia do Norte,0,-6.7529,-51.0858,34.01,0.55,17.02,20.7,7.72,93.28,93.02,95.98,3.58,52.59,72.72,20.88,2.81,47.23,26.41,23.09,12.56,2.86,11.51,0.624,0.467,0.795,0.653,0.55
237,Pará,1505486,Pacajá,0,-3.83542,-50.6399,20.25,0.75,27.84,11.44,6.55,79.89,72.7,61.48,2.0,63.62,69.78,29.64,3.24,75.86,35.32,55.04,21.53,4.09,38.87,0.515,0.338,0.746,0.541,0.65
238,Pará,1505494,Palestina do Pará,0,-5.74027,-48.3181,29.29,0.57,16.35,17.82,8.36,89.33,91.03,57.86,1.85,61.0,70.63,26.93,3.4,67.4,53.87,39.35,23.52,5.91,21.48,0.589,0.467,0.761,0.574,0.55
239,Pará,1505502,Paragominas,0,-3.00212,-47.3527,38.6,0.67,11.07,24.05,8.52,93.2,98.67,97.17,4.88,56.09,71.87,24.88,2.89,51.97,25.79,24.5,12.93,2.69,7.49,0.645,0.514,0.781,0.667,0.6
240,Pará,1505536,Parauapebas,0,-6.06781,-49.9037,55.2,0.52,4.7,36.86,9.26,93.58,99.8,98.3,5.73,49.29,73.55,18.72,2.55,34.69,13.43,13.17,8.11,2.09,4.42,0.715,0.644,0.809,0.701,0.53
241,Pará,1505551,Pau D'Arco,0,-1.59772,-46.9268,25.49,0.48,11.98,16.2,8.29,70.6,91.55,75.0,3.46,57.27,69.86,29.37,2.82,63.12,26.4,38.62,22.46,5.85,21.56,0.574,0.443,0.748,0.571,0.51
242,Pará,1505601,Peixe-Boi,0,-1.19382,-47.324,30.02,0.55,39.55,17.46,8.65,90.31,91.9,79.4,2.2,57.81,70.23,28.19,2.64,71.19,36.24,47.64,22.16,7.42,28.09,0.581,0.478,0.754,0.543,0.55
243,Pará,1505635,Piçarra,0,-6.43778,-48.8716,20.41,0.44,10.76,12.03,7.81,85.84,85.01,94.64,2.47,59.77,72.54,21.36,2.89,65.47,43.19,39.73,22.19,4.1,21.1,0.563,0.402,0.792,0.561,0.52
244,Pará,1505650,Placas,0,-3.86813,-54.2124,22.81,0.58,16.45,11.13,8.33,76.33,71.98,79.77,1.57,61.35,71.18,25.26,3.07,76.36,51.67,53.83,17.12,3.1,29.33,0.552,0.404,0.77,0.541,0.59
245,Pará,1505700,Ponta de Pedras,0,-1.39587,-48.8661,28.9,0.68,5.03,14.23,7.17,67.31,74.84,76.25,3.14,63.44,71.38,24.65,2.78,72.33,48.59,52.26,14.41,4.92,31.76,0.562,0.412,0.773,0.558,0.61
246,Pará,1505809,Portel,0,-1.93639,-50.8194,17.6,0.66,28.05,10.7,6.19,62.51,71.78,88.79,2.91,92.61,71.04,25.67,3.79,80.46,37.45,60.55,30.1,3.32,39.4,0.483,0.286,0.767,0.513,0.64
247,Pará,1505908,Porto de Moz,0,-1.74691,-52.2361,21.14,0.61,18.31,12.15,6.49,60.63,77.54,56.16,4.11,84.49,71.2,25.2,3.59,78.46,49.62,56.21,21.46,3.15,33.82,0.503,0.322,0.77,0.512,0.59
248,Pará,1506005,Prainha,0,-1.798,-53.4779,20.47,0.77,6.23,12.6,7.18,62.85,63.39,50.9,3.15,77.24,71.76,23.56,3.44,81.62,51.72,67.23,17.41,3.85,42.48,0.523,0.359,0.779,0.512,0.68
249,Pará,1506104,Primavera,0,-0.945439,-47.1253,28.11,0.82,39.75,16.64,7.62,92.36,96.24,81.31,1.9,63.32,71.3,24.89,2.67,72.17,35.35,48.38,20.88,7.79,34.32,0.577,0.435,0.772,0.571,0.65
250,Pará,1506112,Quatipuru,0,-0.899604,-47.0134,25.25,0.67,25.03,11.66,7.21,78.66,97.1,82.13,2.1,64.08,68.89,32.65,3.06,77.14,40.61,52.44,22.93,6.3,30.33,0.543,0.397,0.732,0.55,0.6
251,Pará,1506138,Redenção,0,-8.02529,-50.0317,39.58,0.5,7.46,23.51,9.63,90.25,98.96,87.43,5.34,51.69,73.23,19.54,2.56,41.2,25.07,15.48,11.62,4.33,4.55,0.672,0.561,0.804,0.674,0.53
252,Pará,1506161,Rio Maria,0,-7.31236,-50.0379,30.94,0.5,8.34,17.64,8.79,91.21,98.72,91.72,3.77,49.72,73.23,19.54,2.69,45.75,27.56,22.47,16.04,5.41,8.19,0.638,0.495,0.804,0.651,0.53
253,Pará,1506187,Rondon do Pará,0,-4.77793,-48.067,28.18,0.48,20.55,14.76,8.15,84.44,89.83,93.72,3.71,51.27,72.29,22.05,2.27,60.53,23.52,30.0,20.07,4.5,14.11,0.602,0.457,0.788,0.606,0.54
254,Pará,1506195,Rurópolis,0,-4.10028,-54.9092,24.42,0.5,26.46,11.36,6.5,79.87,62.89,79.03,2.65,61.26,70.86,26.23,2.9,73.89,55.22,48.07,17.78,3.76,24.43,0.548,0.392,0.764,0.548,0.57
255,Pará,1506203,Salinópolis,0,-0.630815,-47.3465,40.86,0.5,12.59,22.65,9.17,91.51,99.23,87.59,2.59,56.44,72.87,20.49,2.88,53.2,14.44,27.12,11.05,5.18,9.8,0.647,0.541,0.798,0.628,0.52
256,Pará,1506302,Salvaterra,0,-0.758444,-48.5139,37.02,0.61,17.88,21.12,8.6,96.19,96.93,55.26,3.23,59.84,72.6,21.2,2.75,67.15,25.61,42.33,9.04,5.99,23.43,0.608,0.488,0.793,0.58,0.57
257,Pará,1506351,Santa Bárbara do Pará,0,-1.19219,-48.238,40.29,0.47,10.54,24.35,8.88,92.87,98.29,91.4,2.27,56.94,72.06,22.7,2.62,66.25,28.82,39.11,8.39,5.04,13.74,0.627,0.546,0.784,0.575,0.52
258,Pará,1506401,Santa Cruz do Arari,0,-0.661019,-49.1771,30.77,0.44,1.23,13.73,7.64,84.54,95.13,73.55,1.63,53.66,71.51,24.26,2.5,86.78,15.76,62.21,11.54,5.06,28.79,0.557,0.461,0.775,0.483,0.49
259,Pará,1506500,Santa Izabel do Pará,0,-1.29686,-48.1606,43.99,0.47,12.16,27.87,9.38,90.7,98.97,93.16,3.65,51.48,72.87,20.47,2.33,54.44,19.76,26.13,9.43,4.71,7.32,0.659,0.576,0.798,0.622,0.51
260,Pará,1506559,Santa Luzia do Pará,0,-1.52147,-46.9008,22.98,0.56,23.98,15.42,8.16,84.67,93.98,96.69,2.15,65.07,68.41,34.36,2.92,77.86,53.87,52.26,24.89,5.72,28.23,0.546,0.424,0.724,0.53,0.56
261,Pará,1506583,Santa Maria das Barreiras,0,-8.85784,-49.7215,20.27,0.56,15.43,10.08,7.36,88.35,77.51,81.13,2.67,55.6,72.0,22.87,2.98,69.3,28.62,44.03,18.65,4.84,27.83,0.544,0.37,0.783,0.555,0.56
262,Pará,1506609,Santa Maria do Pará,0,-1.35392,-47.5712,30.05,0.48,25.43,16.48,8.04,89.73,97.03,91.18,2.3,52.82,70.85,26.23,2.45,63.63,27.26,34.67,20.15,6.29,9.62,0.598,0.471,0.764,0.595,0.52
263,Pará,1506708,Santana do Araguaia,0,-9.3281,-50.35,36.31,0.33,11.46,17.91,8.19,89.45,85.67,95.8,2.9,53.66,71.43,24.51,2.64,55.96,30.63,26.78,14.74,2.88,10.94,0.602,0.478,0.774,0.591,0.46
264,Pará,1506807,Santarém,0,-2.43849,-54.6996,50.89,0.63,9.06,34.23,10.26,79.61,90.97,94.65,7.23,58.59,73.44,19.23,2.37,55.4,26.99,31.07,7.4,5.38,14.85,0.691,0.648,0.807,0.632,0.58
265,Pará,1506906,Santarém Novo,0,-0.93097,-47.3855,31.14,0.51,41.47,16.35,8.35,85.65,97.81,87.21,1.47,67.28,71.42,24.53,3.31,79.53,36.12,55.9,17.2,6.12,29.2,0.587,0.502,0.774,0.52,0.56
266,Pará,1507003,Santo Antônio do Tauá,0,-1.1522,-48.1314,39.33,0.49,9.56,24.12,9.61,93.44,98.13,76.53,3.06,58.56,70.18,28.33,2.53,62.79,21.88,33.2,11.5,5.81,12.01,0.632,0.561,0.753,0.598,0.52
267,Pará,1507102,São Caetano de Odivelas,0,-0.747293,-48.0246,30.39,0.42,11.87,18.35,8.97,89.79,98.59,89.71,0.92,60.51,71.01,25.78,2.96,69.96,27.51,43.12,11.34,6.67,17.27,0.585,0.473,0.767,0.552,0.48
268,Pará,1507151,São Domingos do Araguaia,0,-5.53732,-48.7366,31.12,0.64,9.9,18.16,8.08,94.05,90.26,83.27,2.74,64.91,69.25,31.41,3.05,60.51,38.74,30.7,19.7,5.97,12.52,0.594,0.451,0.738,0.629,0.59
269,Pará,1507201,São Domingos do Capim,0,-1.68768,-47.7665,23.07,0.64,9.98,15.1,7.35,68.89,73.16,99.18,2.52,79.24,71.38,24.65,3.34,81.11,42.81,60.67,21.67,4.8,36.22,0.532,0.382,0.773,0.509,0.6
270,Pará,1507300,São Félix do Xingu,0,-6.64254,-51.9904,30.86,0.58,17.79,13.46,6.45,89.01,83.19,92.73,1.85,47.13,72.87,20.47,2.03,54.07,38.04,32.79,11.59,2.36,21.25,0.594,0.411,0.798,0.638,0.62
271,Pará,1507409,São Francisco do Pará,0,-1.16963,-47.7917,32.67,0.42,28.02,18.82,9.51,87.27,98.71,97.28,1.66,55.8,72.08,22.63,2.41,65.06,30.23,35.45,15.91,6.91,14.22,0.608,0.502,0.785,0.571,0.48
272,Pará,1507458,São Geraldo do Araguaia,0,-6.39471,-48.5592,27.55,0.47,8.64,18.13,7.54,88.03,93.81,95.01,4.57,59.66,72.55,21.33,2.63,62.0,28.01,34.17,18.72,5.41,13.4,0.595,0.447,0.793,0.594,0.53
273,Pará,1507466,São João da Ponta,0,-0.857885,-47.918,33.14,0.49,23.34,18.5,8.18,89.56,96.87,100.0,1.97,66.35,71.0,25.79,3.32,75.66,36.09,50.08,8.74,7.48,27.39,0.583,0.495,0.767,0.522,0.51
274,Pará,1507474,São João de Pirabas,0,-0.780222,-47.181,19.91,0.61,48.59,10.58,7.61,86.42,92.41,76.96,1.42,65.35,70.18,28.34,3.1,77.58,41.0,54.68,20.72,7.01,30.74,0.539,0.393,0.753,0.529,0.58
275,Pará,1507508,São João do Araguaia,0,-5.36334,-48.7926,25.02,0.48,24.41,12.66,7.3,80.31,86.53,55.68,2.33,65.62,69.47,30.66,3.11,74.15,48.93,48.84,24.76,5.02,26.18,0.55,0.424,0.741,0.53,0.55
276,Pará,1507607,São Miguel do Guamá,0,-1.61307,-47.4784,29.84,0.49,9.58,16.65,7.82,74.16,93.24,81.1,2.88,62.73,70.1,28.59,2.86,66.3,44.07,37.97,16.99,5.29,14.14,0.591,0.471,0.752,0.582,0.53
277,Pará,1507706,São Sebastião da Boa Vista,0,-1.71597,-49.5249,28.92,0.52,13.25,15.53,7.88,36.59,78.88,90.37,1.51,71.1,70.62,26.95,3.49,77.28,71.45,56.65,15.71,4.75,31.46,0.558,0.439,0.76,0.52,0.54
278,Pará,1507755,Sapucaia,0,-6.94018,-49.6834,24.66,0.5,8.0,13.58,7.93,91.95,97.92,92.45,2.65,51.33,72.52,21.42,3.0,49.25,15.6,22.96,22.29,3.61,8.65,0.59,0.405,0.792,0.639,0.52
279,Pará,1507805,Senador José Porfírio,0,-4.31242,-51.5764,17.22,0.52,13.95,9.01,7.56,75.2,69.84,91.92,2.9,68.93,70.24,28.16,3.35,77.73,47.38,53.06,22.71,3.14,25.82,0.514,0.338,0.754,0.533,0.54
280,Pará,1507904,Soure,0,-0.73032,-48.5015,42.47,0.51,11.38,27.25,8.68,89.8,93.93,85.92,4.76,58.55,70.57,27.1,2.51,62.45,16.45,38.22,9.42,6.23,16.69,0.615,0.525,0.76,0.583,0.52
281,Pará,1507953,Tailândia,0,-2.94584,-48.9489,33.86,0.46,14.8,16.25,7.74,95.47,97.87,95.56,1.85,59.33,71.58,24.07,2.56,66.19,52.62,33.6,13.52,2.38,11.99,0.588,0.45,0.776,0.583,0.52
282,Pará,1507961,Terra Alta,0,-1.02963,-47.9004,36.69,0.53,23.02,20.54,8.99,94.07,96.83,87.05,2.32,63.88,69.59,30.28,2.77,71.27,22.95,44.56,9.63,6.69,21.84,0.605,0.536,0.743,0.555,0.54
283,Pará,1507979,Terra Santa,0,-2.10443,-56.4877,35.86,0.63,7.91,22.71,9.33,85.35,89.93,96.84,3.4,65.58,70.76,26.54,2.78,65.01,33.62,38.14,8.47,5.55,14.91,0.635,0.558,0.763,0.602,0.58
284,Pará,1508001,Tomé-Açu,0,-2.41302,-48.1415,29.79,0.51,10.4,16.47,8.32,87.72,88.16,94.11,2.4,64.96,72.87,20.49,2.9,63.98,30.85,33.93,16.07,4.49,12.7,0.586,0.424,0.798,0.596,0.54
285,Pará,1508035,Tracuateua,0,-1.07653,-46.9031,22.42,0.58,25.33,13.0,7.79,73.62,87.47,92.43,1.38,66.58,71.57,24.11,3.26,81.34,60.99,57.89,21.44,5.57,32.91,0.531,0.376,0.776,0.514,0.59
286,Pará,1508050,Trairão,0,-4.57347,-55.9429,22.76,0.55,19.87,10.75,7.28,76.93,78.99,82.51,1.92,55.67,70.8,26.4,2.76,57.99,48.76,35.18,19.76,3.06,21.86,0.562,0.392,0.763,0.594,0.55
287,Pará,1508084,Tucumã,0,-6.74687,-51.1626,36.13,0.5,3.99,18.19,8.02,90.08,96.94,81.57,3.47,50.55,73.76,18.19,2.64,41.97,19.04,19.04,12.21,3.75,7.73,0.659,0.525,0.813,0.67,0.53
288,Pará,1508100,Tucuruí,0,-3.7657,-49.6773,47.62,0.6,4.06,33.16,8.6,94.34,98.97,96.37,5.76,54.93,73.0,19.81,2.42,45.36,18.54,20.36,9.44,3.43,6.37,0.666,0.548,0.8,0.675,0.57
289,Pará,1508126,Ulianópolis,0,-3.75007,-47.4892,30.46,0.95,28.91,13.63,6.9,85.58,88.89,91.85,1.54,57.24,70.55,27.18,2.42,58.24,27.91,27.74,15.0,2.13,11.7,0.604,0.425,0.759,0.682,0.7
290,Pará,1508159,Uruará,0,-3.71519,-53.7396,29.82,0.57,17.33,14.73,7.81,79.48,77.79,86.1,2.09,57.63,72.87,20.49,2.58,55.73,38.02,34.51,15.11,3.7,20.27,0.589,0.42,0.798,0.609,0.57
291,Pará,1508209,Vigia,0,-0.861194,-48.1386,32.76,0.46,7.33,19.01,8.75,90.41,99.23,95.4,3.66,55.04,71.06,25.61,2.5,58.65,29.4,32.74,10.03,5.97,11.22,0.617,0.516,0.768,0.594,0.5
292,Pará,1508308,Viseu,0,-1.19124,-46.1399,21.43,0.69,24.28,11.44,6.97,77.42,90.73,57.01,2.03,77.67,71.57,24.1,3.26,84.66,54.43,65.78,22.2,4.78,44.66,0.515,0.366,0.776,0.482,0.62
293,Pará,1508357,Vitória do Xingu,0,-2.87922,-52.0088,25.57,0.63,8.66,12.44,8.41,80.48,85.37,38.77,2.27,53.58,72.49,21.51,2.34,65.86,34.83,42.76,16.09,4.29,18.88,0.596,0.451,0.792,0.594,0.6
294,Pará,1508407,Xinguara,0,-7.0983,-49.9437,35.2,0.53,8.12,20.7,8.38,88.12,98.32,92.71,4.79,51.72,73.02,20.08,2.43,45.16,21.32,18.58,12.29,4.19,4.97,0.646,0.503,0.8,0.671,0.55
295,Amapá,1600105,Amapá,0,2.05267,-50.7957,38.27,0.81,0.5,26.35,8.68,80.26,95.35,87.32,3.66,67.91,72.4,19.52,3.94,65.81,40.94,42.01,10.99,4.11,21.53,0.642,0.532,0.79,0.631,0.66
296,Amapá,1600204,Calçoene,0,2.50475,-50.9512,40.32,0.84,14.63,22.72,8.9,87.0,93.96,89.47,3.65,69.52,70.51,24.66,4.45,63.47,43.16,41.85,12.97,3.22,22.76,0.643,0.55,0.759,0.636,0.67
297,Amapá,1600212,Cutias,0,0.970761,-50.8005,43.88,0.72,2.03,28.19,9.9,73.84,95.99,97.83,5.55,76.87,70.58,24.45,4.15,71.71,21.82,47.76,11.19,3.05,23.64,0.628,0.566,0.76,0.576,0.61
298,Amapá,1600238,Ferreira Gomes,0,0.857256,-51.1795,44.2,0.66,7.8,31.09,9.05,77.82,95.57,89.85,3.95,70.67,74.2,15.26,3.2,59.25,27.24,33.75,13.46,3.71,14.94,0.656,0.542,0.82,0.635,0.6
299,Amapá,1600253,Itaubal,0,0.602185,-50.6996,32.0,0.7,16.78,18.41,8.33,68.46,91.94,100.0,1.76,77.56,70.46,24.8,3.87,77.68,26.42,63.69,14.03,3.68,33.09,0.576,0.477,0.758,0.528,0.61
300,Amapá,1600279,Laranjal do Jari,0,-0.804911,-52.453,50.01,0.54,2.28,30.86,9.15,91.53,98.73,88.94,4.08,62.84,73.06,17.89,3.55,52.98,23.58,24.49,11.35,2.88,8.94,0.665,0.573,0.801,0.641,0.55
301,Amapá,1600303,Macapá,1,0.034934,-51.0694,64.71,0.65,3.38,51.26,9.6,95.07,99.81,98.31,14.1,53.07,74.19,15.38,2.25,37.48,16.25,18.15,6.17,3.48,5.89,0.733,0.663,0.82,0.723,0.59
302,Amapá,1600402,Mazagão,0,-0.11336,-51.2891,32.56,0.74,4.72,23.24,8.3,62.42,85.86,74.92,3.24,83.49,70.46,24.8,4.54,64.48,53.72,43.51,21.27,4.12,24.89,0.592,0.449,0.758,0.609,0.65
303,Amapá,1600501,Oiapoque,0,3.84074,-51.8331,40.61,0.87,4.49,24.02,8.55,84.3,95.52,95.26,5.73,63.17,71.71,21.31,3.74,51.02,45.62,31.24,9.05,2.04,21.31,0.658,0.527,0.779,0.693,0.69
304,Amapá,1600154,Pedra Branca do Amapari,0,0.777424,-51.9503,38.7,0.72,29.35,24.26,7.5,80.56,84.87,96.02,3.36,69.0,71.73,21.26,3.82,59.06,37.57,36.14,16.98,3.15,19.65,0.626,0.502,0.779,0.628,0.61
305,Amapá,1600535,Porto Grande,0,0.71243,-51.4155,45.43,0.58,16.2,27.6,9.29,84.5,94.51,96.77,4.73,66.61,71.62,21.54,3.87,58.21,39.28,35.58,12.78,3.39,18.0,0.64,0.554,0.777,0.61,0.56
306,Amapá,1600550,Pracuúba,0,1.74543,-50.7892,41.42,0.84,8.59,25.49,9.71,95.26,98.25,93.32,3.39,87.31,72.4,19.52,4.68,77.46,49.15,55.75,11.79,3.19,37.72,0.614,0.544,0.79,0.539,0.65
307,Amapá,1600600,Santana,0,-0.045434,-51.1729,54.08,0.57,5.0,40.84,9.91,92.5,99.33,95.11,7.86,57.96,72.65,18.88,2.83,50.4,16.28,25.39,9.74,3.74,8.92,0.692,0.638,0.794,0.654,0.55
308,Amapá,1600055,Serra do Navio,0,0.901357,-52.0036,57.86,0.71,3.57,37.77,10.57,94.59,98.25,95.9,5.4,65.47,71.97,20.63,3.37,50.64,14.82,29.33,10.91,2.99,16.99,0.709,0.692,0.783,0.659,0.6
309,Amapá,1600709,Tartarugalzinho,0,1.50652,-50.9087,32.24,0.78,13.59,17.38,8.51,81.57,90.14,91.32,3.93,80.48,72.63,18.94,4.64,73.12,39.08,56.61,16.7,3.59,36.87,0.592,0.473,0.794,0.553,0.65
310,Amapá,1600808,Vitória do Jari,0,-0.938,-52.424,38.98,0.62,1.24,24.3,8.62,67.54,94.11,99.83,3.01,69.36,71.88,20.85,3.73,66.89,48.85,41.64,14.72,3.15,22.33,0.619,0.517,0.781,0.587,0.58
311,Tocantins,1700251,Abreulândia,0,-9.62101,-49.1518,39.59,0.98,10.24,23.69,7.24,60.53,80.22,94.35,7.76,60.04,75.12,14.76,2.72,53.72,11.84,26.79,13.38,5.98,13.3,0.665,0.502,0.835,0.7,0.71
312,Tocantins,1700301,Aguiarnópolis,0,-6.55409,-47.4702,38.93,0.43,22.28,25.13,8.93,93.34,97.77,93.6,3.06,61.36,73.21,19.32,3.07,54.11,16.77,22.35,17.15,5.02,6.95,0.657,0.571,0.804,0.618,0.48
313,Tocantins,1700350,Aliança do Tocantins,0,-11.3056,-48.9361,42.23,0.42,0.46,30.05,10.02,98.72,97.64,94.21,7.19,54.35,73.04,19.78,2.26,55.23,9.49,20.82,14.44,8.36,11.43,0.663,0.596,0.801,0.61,0.47
314,Tocantins,1700400,Almas,0,-11.5706,-47.1792,33.69,0.59,11.17,24.08,9.09,93.17,88.62,77.06,5.25,66.83,72.74,20.54,3.03,60.14,5.5,34.89,21.72,6.83,15.32,0.636,0.524,0.796,0.616,0.57
315,Tocantins,1700707,Alvorada,0,-12.4785,-49.1249,46.2,0.39,0.49,31.18,9.85,97.22,99.92,99.29,7.53,50.4,75.55,13.84,2.4,33.51,2.06,11.18,10.22,7.22,2.83,0.708,0.623,0.843,0.677,0.47
316,Tocantins,1701002,Ananás,0,-6.36437,-48.0735,36.12,0.42,13.45,28.08,11.24,95.42,98.41,87.44,8.86,61.03,73.23,19.28,2.68,52.11,13.8,22.42,19.27,6.71,6.81,0.671,0.605,0.804,0.621,0.48
317,Tocantins,1701051,Angico,0,-6.39179,-47.8611,36.11,0.42,30.82,23.79,10.71,88.95,98.24,86.62,7.56,61.33,71.37,24.39,2.65,62.42,12.68,29.18,17.21,7.97,13.51,0.648,0.612,0.773,0.576,0.47
318,Tocantins,1701101,Aparecida do Rio Negro,0,-9.94139,-47.9638,33.37,0.41,2.28,26.66,10.01,92.8,94.08,95.19,4.72,61.05,72.48,21.24,2.61,59.07,3.07,29.85,14.93,7.55,12.55,0.651,0.588,0.791,0.593,0.48
319,Tocantins,1701309,Aragominas,0,-7.16005,-48.5291,25.42,0.54,16.48,17.26,9.2,79.42,98.02,99.46,4.47,56.19,69.36,30.66,2.78,54.79,19.47,33.63,23.8,6.68,17.63,0.593,0.461,0.739,0.611,0.54
320,Tocantins,1701903,Araguacema,0,-8.80755,-49.5569,34.1,0.59,16.42,25.45,10.12,93.49,83.44,97.69,6.59,61.23,73.29,19.12,2.66,63.31,14.88,36.69,16.36,6.7,24.06,0.639,0.553,0.805,0.587,0.56
321,Tocantins,1702000,Araguaçu,0,-12.9289,-49.8231,36.57,0.41,3.91,24.68,9.92,99.66,96.44,96.97,6.4,49.83,72.78,20.45,1.9,46.05,6.49,18.59,14.48,8.87,6.05,0.675,0.602,0.796,0.642,0.49
322,Tocantins,1702109,Araguaína,0,-7.19238,-48.2044,57.52,0.57,3.13,42.84,10.05,97.76,98.97,95.22,11.45,46.77,74.23,14.04,1.93,30.6,4.45,11.18,8.58,5.06,2.91,0.752,0.712,0.821,0.727,0.56
323,Tocantins,1702158,Araguanã,0,-6.58225,-48.6395,32.86,0.5,6.92,19.65,9.89,97.27,95.64,97.0,6.08,63.42,70.37,27.41,3.13,58.65,6.91,25.5,17.83,6.02,8.17,0.604,0.473,0.756,0.617,0.52
324,Tocantins,1702208,Araguatins,0,-5.64659,-48.1232,34.13,0.62,16.55,23.88,9.62,88.75,93.25,88.34,7.29,65.19,72.56,21.04,2.72,63.75,25.53,36.03,19.77,6.21,19.69,0.631,0.525,0.793,0.604,0.57
325,Tocantins,1702307,Arapoema,0,-7.65463,-49.0637,36.98,0.47,4.17,24.99,9.91,97.45,98.5,94.74,6.75,56.83,73.59,18.37,2.66,49.44,7.97,20.89,17.43,6.26,4.03,0.68,0.601,0.81,0.645,0.51
326,Tocantins,1702406,Arraias,0,-12.9287,-46.9359,32.06,0.67,15.75,25.02,9.69,80.34,86.22,92.38,9.66,59.88,74.73,15.64,2.13,55.98,7.99,35.31,20.87,7.98,18.32,0.651,0.523,0.829,0.636,0.61
327,Tocantins,1702554,Augustinópolis,0,-5.46863,-47.8863,36.78,0.49,15.82,27.09,10.53,94.03,96.53,83.82,5.82,58.53,72.56,21.04,2.49,58.67,14.92,28.83,22.29,6.07,9.01,0.67,0.619,0.793,0.614,0.52
328,Tocantins,1702703,Aurora do Tocantins,0,-12.7105,-46.4076,35.81,0.89,3.29,23.84,8.41,89.32,95.1,87.55,5.74,55.93,73.23,19.27,2.72,57.7,2.9,32.91,20.97,8.94,13.37,0.677,0.57,0.804,0.676,0.68
329,Tocantins,1702901,Axixá do Tocantins,0,-5.61275,-47.7701,34.19,0.47,19.0,23.26,10.11,97.96,96.37,81.23,5.98,65.6,69.0,31.91,2.83,57.6,16.54,32.65,23.95,7.17,16.48,0.627,0.566,0.733,0.595,0.5
330,Tocantins,1703008,Babaçulândia,0,-7.20923,-47.7613,35.94,0.4,25.53,23.05,9.51,81.18,84.5,90.88,3.82,52.22,72.52,21.16,2.26,58.67,9.41,31.33,20.58,7.69,15.11,0.642,0.568,0.792,0.589,0.49
331,Tocantins,1703057,Bandeirantes do Tocantins,0,-7.75612,-48.5836,33.01,0.41,17.88,21.86,9.92,83.72,95.48,89.89,5.58,58.08,72.79,20.44,2.89,66.62,8.4,40.26,17.6,5.54,22.06,0.638,0.571,0.797,0.57,0.55
332,Tocantins,1703073,Barra do Ouro,0,-7.69593,-47.6776,31.62,0.6,35.7,19.76,9.18,87.18,83.65,70.96,4.37,72.01,70.6,26.69,3.26,66.31,6.74,45.73,22.53,6.35,28.37,0.603,0.517,0.76,0.557,0.55
333,Tocantins,1703107,Barrolândia,0,-9.83404,-48.7252,32.33,0.37,1.26,20.12,9.52,91.73,96.88,97.67,5.03,52.31,73.99,17.38,2.35,52.84,2.54,29.67,15.96,6.81,10.56,0.642,0.541,0.817,0.6,0.44
334,Tocantins,1703206,Bernardo Sayão,0,-7.87481,-48.8893,33.11,0.32,3.72,23.77,9.8,96.73,97.5,96.94,6.58,52.24,69.9,28.9,2.51,51.24,7.68,21.61,17.99,5.79,6.2,0.638,0.573,0.748,0.606,0.42
335,Tocantins,1703305,Bom Jesus do Tocantins,0,-8.96306,-48.165,34.59,0.42,15.11,22.11,9.92,93.14,86.44,88.79,5.07,60.2,74.98,15.08,3.34,50.49,11.82,21.3,14.98,5.41,10.31,0.66,0.555,0.833,0.621,0.5
336,Tocantins,1703602,Brasilândia do Tocantins,0,-8.38918,-48.4822,35.51,0.52,4.53,26.61,10.06,98.69,94.34,99.08,7.45,59.01,74.84,15.4,3.32,49.79,10.5,21.03,16.82,7.7,9.07,0.684,0.601,0.831,0.64,0.53
337,Tocantins,1703701,Brejinho de Nazaré,0,-11.0058,-48.5683,39.21,0.55,2.3,28.57,10.34,89.66,96.59,94.45,6.77,58.66,74.2,16.89,2.46,57.88,12.91,23.44,16.63,8.52,9.17,0.686,0.619,0.82,0.635,0.55
338,Tocantins,1703800,Buriti do Tocantins,0,-5.31448,-48.2271,40.53,0.6,24.35,28.18,9.79,98.33,96.26,76.56,7.2,57.37,67.76,36.32,2.33,71.67,22.26,40.34,22.36,5.84,19.26,0.627,0.601,0.713,0.575,0.56
339,Tocantins,1703826,Cachoeirinha,0,-6.1156,-47.9234,36.88,0.43,27.57,26.61,10.77,90.54,97.4,38.62,5.75,68.47,70.7,26.38,2.63,65.84,20.5,41.05,18.2,6.38,18.58,0.627,0.59,0.762,0.548,0.47
340,Tocantins,1703842,Campos Lindos,0,-7.98956,-46.8645,27.54,0.86,36.92,18.18,7.92,89.53,79.21,82.56,5.33,75.56,69.25,31.04,3.41,74.47,21.58,51.98,20.96,3.99,31.11,0.544,0.377,0.738,0.578,0.67
341,Tocantins,1703867,Cariri do Tocantins,0,-11.8881,-49.1609,31.94,0.39,3.1,22.82,9.38,97.67,96.99,95.11,4.54,45.13,74.55,16.07,2.19,41.52,5.22,17.69,14.43,6.74,5.8,0.662,0.549,0.826,0.639,0.46
342,Tocantins,1703883,Carmolândia,0,-7.03262,-48.3978,35.98,0.41,8.69,25.38,9.39,98.19,98.86,98.8,9.06,56.38,73.59,18.37,2.82,49.03,8.07,23.69,19.02,5.53,6.67,0.64,0.521,0.81,0.621,0.48
343,Tocantins,1703891,Carrasco Bonito,0,-5.31415,-48.0314,26.5,0.59,30.99,19.46,10.29,92.75,95.54,82.79,4.83,71.46,68.69,32.99,3.51,76.27,11.7,49.48,28.95,5.37,28.14,0.594,0.531,0.728,0.543,0.56
344,Tocantins,1703909,Caseara,0,-9.27612,-49.9521,33.95,0.71,3.13,23.2,11.0,95.45,82.44,96.83,7.05,59.2,74.51,16.14,3.37,57.4,32.0,29.28,17.95,5.74,14.36,0.658,0.534,0.825,0.647,0.61
345,Tocantins,1704105,Centenário,0,-8.96103,-47.3304,29.94,0.76,36.46,19.22,9.36,98.43,66.47,91.86,5.04,61.08,66.97,39.34,3.31,71.95,3.3,48.34,28.55,7.4,30.56,0.569,0.461,0.7,0.571,0.63
346,Tocantins,1705102,Chapada da Natividade,0,-11.6175,-47.7486,26.68,0.75,10.73,16.48,10.1,95.15,80.17,99.17,3.33,61.35,73.84,17.75,3.09,67.93,4.9,42.26,20.69,7.78,26.85,0.62,0.497,0.814,0.59,0.62
347,Tocantins,1704600,Chapada de Areia,0,-10.1419,-49.1403,30.66,0.49,1.18,16.81,9.52,94.71,91.44,97.64,2.76,49.66,68.58,33.35,2.91,58.54,3.18,20.8,18.9,8.09,15.11,0.619,0.529,0.726,0.619,0.51
348,Tocantins,1705508,Colinas do Tocantins,0,-8.05764,-48.4757,44.51,0.58,2.86,30.29,9.52,98.48,98.19,97.28,10.22,50.68,73.85,17.72,2.24,40.86,6.87,17.38,12.02,6.07,4.55,0.701,0.614,0.814,0.69,0.56
349,Tocantins,1716703,Colméia,0,-8.72463,-48.7638,34.63,0.43,4.33,25.3,10.78,93.95,95.95,98.69,7.94,50.88,73.97,17.44,2.51,46.34,5.39,20.86,18.97,7.8,4.81,0.671,0.574,0.816,0.645,0.5
350,Tocantins,1705557,Combinado,0,-12.7917,-46.5388,38.88,0.49,0.69,25.76,11.17,93.18,96.66,77.65,7.49,53.28,73.89,17.63,2.64,48.46,3.62,23.2,18.29,6.43,4.18,0.697,0.639,0.815,0.649,0.52
351,Tocantins,1705607,Conceição do Tocantins,0,-12.2209,-47.2951,28.99,0.56,27.78,19.42,8.44,91.62,78.88,87.74,5.18,70.55,69.32,30.8,3.32,64.24,6.58,33.53,23.18,7.39,17.94,0.592,0.478,0.739,0.588,0.55
352,Tocantins,1706001,Couto Magalhães,0,-8.28411,-49.2473,30.61,0.57,7.77,21.07,9.13,90.22,93.89,95.74,4.58,57.42,70.6,26.69,2.26,68.96,17.88,40.34,17.45,5.93,22.26,0.605,0.508,0.76,0.574,0.55
353,Tocantins,1706100,Cristalândia,0,-10.5985,-49.1942,39.74,0.56,2.47,29.54,9.68,98.76,92.94,98.41,8.49,54.11,73.29,19.13,2.35,49.69,6.39,22.33,12.61,8.58,8.22,0.673,0.57,0.805,0.663,0.57
354,Tocantins,1706258,Crixás do Tocantins,0,-11.0994,-48.9152,32.18,0.44,3.34,20.33,9.46,98.98,89.33,99.8,7.63,55.93,72.86,20.23,2.24,51.46,8.87,25.73,10.67,6.59,15.07,0.644,0.555,0.798,0.603,0.48
355,Tocantins,1706506,Darcinópolis,0,-6.71591,-47.7597,25.17,0.5,24.41,13.35,8.64,85.12,91.7,95.88,4.16,61.75,70.83,25.99,2.87,57.36,13.37,30.07,20.67,6.52,13.5,0.581,0.429,0.764,0.597,0.51
356,Tocantins,1707009,Dianópolis,0,-11.624,-46.8198,43.29,0.6,4.26,34.44,9.94,93.95,95.21,97.3,12.26,58.78,74.34,16.55,2.44,46.32,10.59,22.52,12.37,5.56,8.03,0.701,0.624,0.822,0.673,0.57
357,Tocantins,1707108,Divinópolis do Tocantins,0,-9.80018,-49.2169,35.63,0.79,0.84,24.4,9.97,98.92,90.61,96.66,7.75,54.7,73.97,17.44,2.52,53.85,7.03,26.67,16.43,7.76,13.42,0.683,0.585,0.816,0.667,0.64
358,Tocantins,1707207,Dois Irmãos do Tocantins,0,-9.25534,-49.0638,27.05,0.51,17.44,15.18,8.78,83.69,82.21,99.54,2.92,53.01,73.78,17.89,2.61,66.47,9.86,43.13,17.5,7.9,30.85,0.583,0.442,0.813,0.551,0.56
359,Tocantins,1707306,Dueré,0,-11.3416,-49.2716,36.45,0.57,1.2,24.87,10.13,98.34,93.44,98.42,5.73,54.2,75.77,13.36,2.85,51.46,7.37,22.25,12.52,8.21,6.86,0.679,0.566,0.846,0.654,0.56
360,Tocantins,1707405,Esperantina,0,-5.36593,-48.5378,27.64,0.58,29.78,19.41,10.26,94.89,95.86,66.69,4.53,69.03,67.92,35.73,2.9,81.74,37.42,58.86,22.67,5.28,36.37,0.57,0.524,0.715,0.495,0.55
361,Tocantins,1707553,Fátima,0,-10.7603,-48.9076,43.0,0.59,0.23,31.6,10.16,99.03,97.46,96.07,7.18,57.95,73.75,17.98,2.26,49.93,2.61,22.14,14.92,7.86,7.95,0.697,0.638,0.813,0.653,0.56
362,Tocantins,1707652,Figueirópolis,0,-12.1312,-49.1748,38.73,0.52,0.23,28.56,9.38,99.31,94.88,97.12,7.76,53.01,74.32,16.59,2.31,40.48,5.33,20.27,16.92,9.46,9.2,0.689,0.6,0.822,0.664,0.52
363,Tocantins,1707702,Filadélfia,0,-7.33501,-47.4954,30.43,0.53,19.23,23.23,9.38,86.11,88.64,79.43,5.41,64.51,72.52,21.16,2.46,66.54,12.98,38.81,19.03,8.16,19.95,0.621,0.522,0.792,0.578,0.54
364,Tocantins,1708205,Formoso do Araguaia,0,-11.7976,-49.5316,41.71,0.48,6.34,27.81,9.16,97.72,96.56,92.04,7.55,54.66,73.05,19.74,2.5,48.66,8.29,22.09,12.89,6.41,12.31,0.67,0.587,0.801,0.64,0.52
365,Tocantins,1708304,Goianorte,0,-8.77413,-48.9313,28.72,0.5,14.75,19.26,8.9,93.32,87.22,93.0,5.62,57.23,73.31,19.08,3.12,61.0,15.84,33.53,16.77,7.02,15.9,0.621,0.497,0.805,0.598,0.54
366,Tocantins,1709005,Goiatins,0,-7.71478,-47.3252,28.68,0.7,31.36,18.93,8.28,82.78,62.63,76.5,5.32,74.44,70.87,25.85,3.92,71.93,10.72,53.72,25.27,6.94,37.47,0.576,0.462,0.765,0.541,0.61
367,Tocantins,1709302,Guaraí,0,-8.83543,-48.5114,48.42,0.68,2.26,35.07,10.08,95.4,99.52,96.84,12.86,48.17,75.35,14.26,2.35,38.82,3.36,15.09,11.23,6.29,4.21,0.741,0.67,0.839,0.724,0.61
368,Tocantins,1709500,Gurupi,0,-11.7279,-49.068,60.4,0.51,0.94,44.78,9.88,99.18,99.28,97.98,13.64,43.41,75.6,13.71,1.97,25.74,3.79,7.14,6.39,5.48,1.74,0.759,0.706,0.843,0.736,0.54
369,Tocantins,1709807,Ipueiras,0,-11.2329,-48.46,32.33,0.32,18.1,17.0,9.68,96.72,91.96,91.09,3.02,61.48,72.81,20.36,3.04,59.68,2.54,28.66,15.79,6.83,11.31,0.62,0.518,0.797,0.576,0.43
370,Tocantins,1710508,Itacajá,0,-8.39293,-47.7726,33.43,0.67,18.35,24.33,8.91,89.95,74.49,99.54,7.54,67.23,72.87,20.23,3.47,65.28,7.94,40.07,18.24,7.97,25.42,0.612,0.491,0.798,0.585,0.58
371,Tocantins,1710706,Itaguatins,0,-5.77267,-47.4864,29.27,0.59,26.4,20.32,9.46,88.27,90.14,83.86,4.79,65.54,72.94,20.02,3.37,65.87,14.67,43.77,24.79,7.12,23.75,0.616,0.511,0.799,0.572,0.57
372,Tocantins,1710904,Itapiratins,0,-8.37982,-48.1072,22.57,0.52,19.53,14.89,9.81,80.98,78.99,89.31,3.87,59.17,72.77,20.49,3.27,55.6,5.93,30.78,19.09,8.49,13.87,0.601,0.446,0.796,0.611,0.52
373,Tocantins,1711100,Itaporã do Tocantins,0,-8.57172,-48.6895,32.0,0.33,2.38,24.89,9.68,97.05,95.57,96.95,5.12,53.39,75.53,13.86,2.31,51.72,18.33,19.48,18.83,6.91,5.56,0.65,0.531,0.842,0.613,0.44
374,Tocantins,1711506,Jaú do Tocantins,0,-12.6509,-48.589,28.09,0.75,0.98,18.61,9.35,90.1,87.08,98.01,5.65,57.24,73.89,17.63,2.72,52.64,12.45,26.97,13.46,8.67,12.84,0.662,0.529,0.815,0.672,0.64
375,Tocantins,1711803,Juarina,0,-8.11951,-49.0643,33.65,0.49,7.79,21.89,8.79,92.77,91.09,97.27,5.51,54.72,69.52,30.14,2.84,66.16,10.65,39.81,15.19,5.87,23.89,0.584,0.478,0.742,0.563,0.52
376,Tocantins,1711902,Lagoa da Confusão,0,-10.7906,-49.6199,38.29,0.44,17.96,24.65,7.9,89.25,85.86,95.27,5.67,57.77,72.2,22.01,3.19,50.23,19.71,24.83,13.48,4.52,7.39,0.627,0.496,0.787,0.63,0.51
377,Tocantins,1711951,Lagoa do Tocantins,0,-10.368,-47.538,28.15,0.72,3.5,19.43,8.3,94.44,88.27,90.11,8.8,79.21,70.5,27.0,3.44,74.48,6.14,52.69,22.58,6.27,33.42,0.579,0.471,0.758,0.543,0.6
378,Tocantins,1712009,Lajeado,0,-9.74996,-48.3565,42.79,0.63,2.24,30.25,8.18,91.89,98.6,94.43,6.52,55.7,72.89,20.17,2.24,47.38,14.85,21.81,9.68,5.41,9.91,0.675,0.573,0.798,0.673,0.58
379,Tocantins,1712157,Lavandeira,0,-12.7847,-46.5099,38.64,0.47,1.37,26.83,10.14,75.92,87.72,91.35,5.02,55.52,71.5,24.0,2.89,55.6,2.8,35.15,22.49,5.79,15.6,0.66,0.62,0.775,0.598,0.51
380,Tocantins,1712405,Lizarda,0,-9.59002,-46.6738,29.03,1.11,10.92,20.85,9.06,79.68,72.7,32.27,5.04,73.5,70.87,25.85,3.42,74.72,1.36,59.39,22.36,7.92,48.36,0.57,0.415,0.765,0.584,0.74
381,Tocantins,1712454,Luzinópolis,0,-6.17794,-47.8582,38.73,0.48,27.05,25.85,10.73,83.63,98.8,94.85,6.77,64.18,68.54,33.49,3.16,60.79,7.84,29.21,18.19,7.25,13.76,0.639,0.605,0.726,0.593,0.49
382,Tocantins,1712504,Marianópolis do Tocantins,0,-9.79377,-49.6553,34.11,0.5,7.63,20.83,9.39,98.58,94.55,94.27,6.76,56.55,72.53,21.13,2.76,49.21,8.93,26.53,17.97,5.95,11.5,0.631,0.504,0.792,0.63,0.53
383,Tocantins,1712702,Mateiros,0,-10.5464,-46.4168,28.73,0.51,1.54,19.67,8.15,83.63,88.94,98.4,5.48,70.08,74.39,16.42,2.85,62.48,3.41,34.71,26.37,4.5,15.96,0.607,0.463,0.823,0.586,0.52
384,Tocantins,1712801,Maurilândia do Tocantins,0,-5.95169,-47.5125,27.4,0.55,35.56,19.61,8.83,88.71,95.77,75.92,4.47,67.32,68.43,33.9,2.92,70.87,13.19,43.96,23.61,6.31,25.93,0.58,0.498,0.724,0.542,0.52
385,Tocantins,1713205,Miracema do Tocantins,0,-9.56556,-48.393,45.59,0.53,1.99,35.05,9.9,96.09,99.0,97.79,9.33,54.86,74.17,16.95,2.44,40.99,4.45,18.53,11.01,6.32,6.51,0.684,0.579,0.82,0.675,0.54
386,Tocantins,1713304,Miranorte,0,-9.52907,-48.5922,38.22,0.39,4.54,26.93,9.49,97.1,98.27,99.25,5.63,52.93,73.23,19.27,2.27,46.55,1.85,20.53,13.75,7.88,8.31,0.662,0.571,0.804,0.633,0.48
387,Tocantins,1713601,Monte do Carmo,0,-10.7611,-48.1114,30.96,0.76,5.03,17.85,9.44,88.65,77.88,97.62,5.35,61.29,73.49,18.62,3.35,64.39,19.77,37.4,19.44,7.61,21.62,0.622,0.489,0.808,0.608,0.62
388,Tocantins,1713700,Monte Santo do Tocantins,0,-10.0075,-48.9941,31.99,0.4,24.01,19.83,9.48,90.96,94.04,95.11,1.59,54.22,70.6,26.69,2.34,60.49,7.28,35.39,16.31,8.39,17.83,0.62,0.547,0.76,0.572,0.48
389,Tocantins,1713957,Muricilândia,0,-7.14669,-48.6091,27.02,0.54,23.01,19.33,8.93,88.57,93.03,87.59,4.27,63.91,69.72,29.47,2.98,67.92,16.18,47.03,23.86,6.95,28.08,0.596,0.524,0.745,0.543,0.54
390,Tocantins,1714203,Natividade,0,-11.7034,-47.7223,35.77,0.68,5.21,28.05,9.88,88.87,92.73,93.96,8.59,58.23,75.81,13.28,2.28,54.78,5.89,30.66,19.07,8.0,14.74,0.673,0.556,0.847,0.646,0.59
391,Tocantins,1714302,Nazaré,0,-6.37496,-47.6643,36.96,0.51,29.1,26.14,10.39,92.64,98.63,93.88,7.51,62.32,72.52,21.16,2.76,62.75,11.3,32.26,20.92,9.23,17.81,0.643,0.576,0.792,0.584,0.52
392,Tocantins,1714880,Nova Olinda,0,-7.63171,-48.4252,32.58,0.49,8.68,18.36,9.44,95.05,96.6,90.15,4.42,59.75,70.92,25.72,2.51,57.05,8.26,27.41,17.16,6.94,11.19,0.631,0.535,0.765,0.614,0.52
393,Tocantins,1715002,Nova Rosalândia,0,-10.5651,-48.9125,42.22,0.52,0.52,29.11,10.69,98.77,99.18,99.05,7.17,60.08,72.47,21.27,2.16,63.67,15.06,33.45,15.36,8.83,23.45,0.661,0.628,0.791,0.582,0.52
394,Tocantins,1715101,Novo Acordo,0,-9.97063,-47.6785,35.98,0.6,3.87,25.24,9.07,93.58,88.31,94.27,7.66,63.35,72.81,20.37,2.7,57.81,5.43,28.73,14.98,7.1,18.21,0.639,0.53,0.797,0.618,0.55
395,Tocantins,1715150,Novo Alegre,0,-12.9217,-46.5713,44.65,0.52,1.28,36.28,11.04,84.62,94.04,98.26,8.71,51.89,73.72,18.04,1.84,51.58,4.36,24.37,13.78,7.79,8.86,0.699,0.654,0.812,0.642,0.52
396,Tocantins,1715259,Novo Jardim,0,-11.826,-46.6325,27.23,0.4,1.13,15.62,9.72,88.38,89.22,97.13,1.92,69.92,68.78,32.65,3.6,63.14,6.89,36.07,19.89,5.41,17.14,0.596,0.52,0.73,0.559,0.45
397,Tocantins,1715507,Oliveira de Fátima,0,-10.707,-48.9086,47.64,0.59,7.08,31.05,10.88,98.75,98.24,97.43,7.74,63.31,72.86,20.24,2.7,52.49,1.82,30.68,16.76,7.81,12.56,0.675,0.614,0.798,0.627,0.55
398,Tocantins,1721000,Palmas,1,-10.24,-48.3558,71.12,0.62,0.93,57.58,10.35,99.16,99.81,99.17,20.81,41.57,74.61,16.36,2.04,21.7,1.78,6.91,3.76,2.73,1.52,0.788,0.749,0.827,0.789,0.58
399,Tocantins,1715705,Palmeirante,0,-7.84786,-47.9242,26.79,0.59,32.23,16.65,7.49,77.58,81.38,46.79,4.18,63.93,70.37,27.41,3.51,68.88,14.86,44.49,19.88,6.02,27.94,0.571,0.436,0.756,0.564,0.57
400,Tocantins,1713809,Palmeiras do Tocantins,0,-6.61658,-47.5464,33.64,0.5,17.32,21.74,8.44,84.09,95.11,81.87,4.3,60.38,73.61,18.33,3.01,60.43,19.55,33.99,16.86,6.59,16.74,0.628,0.522,0.81,0.586,0.51
401,Tocantins,1715754,Palmeirópolis,0,-13.0447,-48.4026,37.12,0.47,5.49,24.3,9.66,93.52,94.09,97.13,5.77,50.05,74.01,17.33,2.34,46.49,4.68,19.11,13.28,7.34,7.71,0.673,0.571,0.817,0.652,0.52
402,Tocantins,1716109,Paraíso do Tocantins,0,-10.175,-48.8823,56.6,0.71,0.81,41.05,10.67,99.43,99.72,98.33,9.86,45.83,74.88,15.31,2.14,25.98,2.24,6.41,6.85,5.63,1.63,0.764,0.706,0.831,0.759,0.62
403,Tocantins,1716208,Paranã,0,-12.6167,-47.8734,23.55,0.83,17.32,17.9,9.07,66.91,62.92,98.11,6.32,63.19,71.63,23.61,3.33,68.27,19.63,47.35,25.93,7.25,31.89,0.595,0.461,0.777,0.588,0.65
404,Tocantins,1716307,Pau D'Arco,0,-7.53919,-49.367,31.47,0.49,5.25,19.47,10.66,92.35,95.66,81.8,5.46,55.95,72.51,21.17,2.61,51.58,7.72,30.36,18.68,6.36,13.12,0.661,0.587,0.792,0.621,0.52
405,Tocantins,1716505,Pedro Afonso,0,-8.97034,-48.1729,54.28,0.45,2.9,41.96,9.75,96.98,96.44,95.41,10.39,49.99,75.77,13.35,2.75,31.2,1.55,12.59,10.51,5.99,4.1,0.732,0.664,0.846,0.699,0.5
406,Tocantins,1716604,Peixe,0,-12.0254,-48.5395,34.91,0.69,5.9,20.21,9.21,95.74,94.65,98.35,5.7,53.7,73.69,18.12,2.51,47.6,10.05,25.15,16.51,7.03,12.73,0.674,0.555,0.812,0.679,0.62
407,Tocantins,1716653,Pequizeiro,0,-8.5932,-48.9327,24.99,0.4,6.61,19.15,10.48,89.43,95.71,97.78,4.75,57.4,73.38,18.89,2.98,60.88,19.22,27.04,19.67,6.89,9.4,0.627,0.518,0.806,0.589,0.47
408,Tocantins,1717008,Pindorama do Tocantins,0,-11.1311,-47.5726,29.14,0.59,5.49,21.66,9.13,94.69,81.14,94.86,5.64,58.22,68.97,32.01,2.84,66.93,6.72,41.73,14.79,6.86,23.32,0.605,0.521,0.733,0.579,0.56
409,Tocantins,1717206,Piraquê,0,-6.77302,-48.2958,27.66,0.5,8.46,19.13,8.98,88.53,93.88,98.55,5.18,51.85,72.51,21.17,3.23,60.43,13.64,29.65,21.14,5.92,15.36,0.621,0.511,0.792,0.593,0.52
410,Tocantins,1717503,Pium,0,-10.442,-49.1876,36.17,0.48,7.36,22.3,8.89,92.79,80.65,95.36,4.99,58.22,74.3,16.64,3.01,49.8,14.1,24.21,19.37,7.83,8.95,0.65,0.527,0.822,0.633,0.52
411,Tocantins,1717800,Ponte Alta do Bom Jesus,0,-12.0853,-46.4825,27.6,0.8,20.06,18.2,9.43,62.29,88.53,78.35,5.14,63.1,74.19,16.9,2.76,67.41,22.28,47.55,25.2,9.18,31.17,0.603,0.455,0.82,0.589,0.63
412,Tocantins,1717909,Ponte Alta do Tocantins,0,-10.7481,-47.5276,34.54,0.57,9.85,24.15,9.07,89.5,80.21,98.13,6.34,61.06,71.72,23.36,3.06,65.06,2.91,38.4,16.62,7.37,19.53,0.624,0.531,0.779,0.587,0.55
413,Tocantins,1718006,Porto Alegre do Tocantins,0,-11.618,-47.0621,36.29,0.53,5.37,23.95,9.43,85.75,90.68,97.06,5.38,65.84,72.09,22.32,2.24,55.21,1.41,36.12,19.87,7.55,17.42,0.645,0.584,0.785,0.586,0.51
414,Tocantins,1718204,Porto Nacional,0,-10.7027,-48.408,54.46,0.51,2.83,41.07,10.35,94.22,98.67,95.65,12.49,51.66,74.56,16.04,2.24,35.81,2.21,13.79,9.22,6.25,4.03,0.74,0.701,0.826,0.699,0.54
415,Tocantins,1718303,Praia Norte,0,-5.39281,-47.8111,27.91,0.53,31.15,18.67,9.84,96.19,96.63,64.66,4.05,74.82,68.79,32.62,3.39,73.99,38.05,47.44,30.96,5.81,27.91,0.583,0.517,0.73,0.526,0.53
416,Tocantins,1718402,Presidente Kennedy,0,-8.5406,-48.5062,35.18,0.46,5.71,25.54,11.53,91.73,97.48,95.36,6.35,57.98,74.21,16.85,2.42,55.94,6.34,23.96,16.35,7.99,4.65,0.669,0.582,0.82,0.628,0.51
417,Tocantins,1718451,Pugmil,0,-10.424,-48.8957,36.72,0.34,0.77,21.6,9.3,98.61,96.89,99.08,4.28,60.83,73.55,18.48,2.99,47.13,6.12,19.01,12.97,5.83,6.23,0.669,0.595,0.809,0.621,0.44
418,Tocantins,1718501,Recursolândia,0,-8.7227,-47.2421,23.19,0.7,46.39,17.36,8.15,70.76,58.38,91.75,4.67,73.4,69.25,31.04,4.09,79.35,2.36,65.2,27.63,5.44,46.78,0.5,0.345,0.738,0.49,0.64
419,Tocantins,1718550,Riachinho,0,-6.44005,-48.1371,25.82,0.56,25.55,19.6,9.24,91.3,83.51,86.23,5.74,63.65,70.6,26.69,3.04,77.57,9.39,50.83,22.56,6.9,35.04,0.572,0.49,0.76,0.503,0.53
420,Tocantins,1718659,Rio da Conceição,0,-11.3949,-46.8847,39.98,0.63,2.17,26.95,8.88,88.08,94.74,97.76,6.34,65.13,68.05,35.25,3.28,68.86,2.22,40.3,14.02,5.19,26.41,0.608,0.561,0.718,0.557,0.55
421,Tocantins,1718709,Rio dos Bois,0,-9.34425,-48.5245,32.62,0.42,22.43,21.82,9.26,82.34,89.66,96.22,5.95,53.43,72.69,20.68,2.69,60.07,6.45,28.6,19.25,6.38,15.8,0.616,0.501,0.795,0.588,0.48
422,Tocantins,1718758,Rio Sono,0,-9.35002,-47.888,29.0,0.68,38.38,19.54,9.47,88.04,64.17,99.43,4.82,62.78,71.74,23.3,2.85,67.67,5.42,45.36,19.89,8.12,27.2,0.6,0.482,0.779,0.574,0.59
423,Tocantins,1718808,Sampaio,0,-5.35423,-47.8782,35.8,0.46,14.39,23.63,10.01,95.59,95.57,71.2,5.34,76.6,66.46,41.36,4.07,67.58,21.18,47.28,23.92,5.9,21.21,0.606,0.59,0.691,0.546,0.5
424,Tocantins,1718840,Sandolândia,0,-12.538,-49.9242,34.07,0.36,0.89,24.1,8.37,75.69,97.23,97.09,8.1,50.09,72.45,21.33,2.14,50.83,7.0,18.46,16.58,6.98,6.89,0.659,0.578,0.791,0.626,0.47
425,Tocantins,1718865,Santa Fé do Araguaia,0,-7.15803,-48.7165,31.84,0.49,13.99,17.86,8.82,93.85,96.82,95.98,5.8,58.97,73.21,19.33,2.71,60.15,14.01,31.68,19.69,4.52,15.21,0.616,0.482,0.804,0.604,0.54
426,Tocantins,1718881,Santa Maria do Tocantins,0,-8.8046,-47.7887,33.77,0.49,9.44,23.26,10.18,84.31,80.32,99.52,6.79,59.8,72.05,22.44,3.04,57.81,8.07,35.51,17.62,7.43,15.29,0.634,0.543,0.784,0.6,0.53
427,Tocantins,1718899,Santa Rita do Tocantins,0,-10.8617,-48.9161,38.1,0.49,3.64,22.65,9.75,90.24,78.03,98.26,5.77,57.16,74.8,15.49,2.85,55.52,15.91,24.57,14.99,6.3,9.14,0.651,0.527,0.83,0.63,0.53
428,Tocantins,1718907,Santa Rosa do Tocantins,0,-11.4474,-48.1216,29.94,0.58,14.84,18.08,10.11,89.4,81.25,74.98,5.43,69.25,71.77,23.24,2.78,66.42,6.6,39.15,17.72,7.49,22.74,0.595,0.471,0.78,0.574,0.54
429,Tocantins,1719004,Santa Tereza do Tocantins,0,-10.2746,-47.8033,34.82,0.4,0.64,26.69,9.85,93.95,92.74,96.55,7.53,62.04,74.0,17.37,2.7,51.76,12.64,19.51,14.57,6.82,7.81,0.662,0.575,0.817,0.618,0.47
430,Tocantins,1720002,Santa Terezinha do Tocantins,0,-6.44438,-47.6684,32.02,0.56,21.7,24.98,10.27,87.26,93.86,92.31,5.49,60.44,70.5,27.0,2.55,65.77,12.03,36.14,21.21,7.6,20.63,0.637,0.584,0.758,0.583,0.54
431,Tocantins,1720101,São Bento do Tocantins,0,-6.0258,-47.9012,34.81,0.61,26.97,20.18,10.17,84.56,90.93,87.13,4.34,67.02,69.14,31.41,3.15,64.01,38.76,32.66,19.66,5.36,18.2,0.605,0.506,0.736,0.595,0.56
432,Tocantins,1720150,São Félix do Tocantins,0,-10.1615,-46.6618,29.86,0.83,4.85,23.09,10.23,82.32,68.56,97.19,7.54,76.97,71.28,24.64,2.65,74.65,1.47,56.99,20.31,5.85,36.15,0.574,0.446,0.771,0.55,0.64
433,Tocantins,1720200,São Miguel do Tocantins,0,-5.56305,-47.5743,36.16,0.59,28.85,22.33,9.68,89.63,98.09,95.63,2.53,66.05,70.7,26.38,3.0,67.58,31.62,37.04,24.95,6.16,18.32,0.623,0.544,0.762,0.582,0.56
434,Tocantins,1720259,São Salvador do Tocantins,0,-12.7458,-48.2352,32.82,0.73,24.9,22.03,6.32,92.01,76.86,98.06,7.23,58.93,72.63,20.85,2.16,64.21,11.92,44.6,19.02,6.08,28.22,0.605,0.471,0.794,0.592,0.61
435,Tocantins,1720309,São Sebastião do Tocantins,0,-5.26131,-48.2021,30.48,0.58,25.46,13.05,9.08,82.67,93.42,71.29,2.68,63.85,69.86,29.02,2.85,77.93,12.89,53.58,25.75,5.51,29.96,0.573,0.487,0.748,0.516,0.55
436,Tocantins,1720499,São Valério,0,-11.9743,-48.2353,35.3,0.55,4.87,16.81,10.25,93.9,86.69,96.05,5.38,60.9,73.81,17.83,2.67,63.92,13.71,34.58,20.01,8.78,17.2,0.643,0.539,0.814,0.605,0.56
437,Tocantins,1720655,Silvanópolis,0,-11.1471,-48.1694,37.29,0.59,2.47,28.46,10.36,96.04,91.76,86.46,6.19,61.56,73.84,17.75,2.79,53.07,15.21,25.87,17.59,9.91,12.59,0.675,0.592,0.814,0.638,0.56
438,Tocantins,1720804,Sítio Novo do Tocantins,0,-5.6012,-47.6381,26.82,0.6,16.21,19.93,8.79,94.91,97.81,73.58,4.19,61.82,70.7,26.38,2.46,68.65,20.5,45.62,25.86,7.59,32.02,0.604,0.526,0.762,0.55,0.56
439,Tocantins,1720853,Sucupira,0,-11.993,-48.9685,40.33,0.42,0.59,30.43,10.2,97.64,97.67,92.27,7.86,58.22,72.63,20.85,2.35,51.97,12.26,22.02,15.26,6.77,7.45,0.667,0.599,0.794,0.623,0.5
440,Tocantins,1708254,Tabocão,0,-9.05611,-48.5206,36.85,0.38,3.77,25.38,10.04,93.17,97.48,99.8,6.79,53.2,73.5,18.6,2.46,50.56,1.5,24.34,17.4,6.24,9.64,0.659,0.575,0.808,0.616,0.46
441,Tocantins,1720903,Taguatinga,0,-12.4026,-46.437,31.2,0.77,6.62,21.42,8.52,80.05,92.57,88.27,5.55,56.59,74.07,17.19,2.35,62.22,4.66,38.45,19.2,7.5,21.96,0.634,0.497,0.818,0.628,0.64
442,Tocantins,1720937,Taipas do Tocantins,0,-12.1873,-46.9797,25.7,0.53,0.2,19.92,7.76,80.91,88.42,91.96,5.93,67.53,72.88,20.2,2.85,66.85,1.04,38.64,26.5,7.81,17.08,0.601,0.47,0.798,0.578,0.55
443,Tocantins,1720978,Talismã,0,-12.7949,-49.0896,37.77,0.38,2.82,23.14,8.11,99.5,94.23,95.89,5.88,48.69,73.04,19.78,2.28,37.86,11.35,14.6,18.68,5.89,6.68,0.654,0.535,0.801,0.654,0.48
444,Tocantins,1721109,Tocantínia,0,-9.5632,-48.3741,33.59,0.78,20.08,26.94,7.79,81.04,92.21,91.28,5.55,77.89,71.89,22.87,3.5,68.93,2.56,49.36,20.17,5.67,32.5,0.589,0.459,0.782,0.57,0.62
445,Tocantins,1721208,Tocantinópolis,0,-6.32447,-47.4224,48.29,0.52,9.2,34.92,9.88,93.82,98.39,93.45,9.64,59.66,73.07,19.7,2.4,53.78,9.25,24.43,15.69,7.16,10.17,0.681,0.623,0.801,0.634,0.52
446,Tocantins,1721257,Tupirama,0,-8.97168,-48.1883,34.1,0.38,15.16,24.24,10.47,83.89,86.2,98.6,6.48,52.96,73.5,18.6,2.69,46.87,9.01,21.85,15.95,5.91,9.78,0.67,0.593,0.808,0.629,0.48
447,Tocantins,1721307,Tupiratins,0,-8.39388,-48.1277,19.96,0.56,11.3,13.89,8.63,97.21,92.72,99.39,5.03,63.45,72.44,21.36,2.51,60.54,44.9,34.91,20.47,8.01,22.22,0.587,0.425,0.791,0.601,0.57
448,Tocantins,1722081,Wanderlândia,0,-6.85274,-47.9601,36.46,0.46,22.32,25.57,10.08,92.38,94.27,89.63,5.68,56.05,69.89,28.95,2.61,55.33,8.51,27.35,18.92,6.89,8.79,0.638,0.561,0.748,0.619,0.51
449,Tocantins,1722107,Xambioá,0,-6.4141,-48.532,39.66,0.68,7.69,27.41,9.98,94.85,96.46,96.19,7.25,55.93,74.05,17.25,2.5,53.64,14.29,30.18,17.93,7.29,11.92,0.671,0.57,0.818,0.648,0.6
450,Maranhão,2100055,Açailândia,0,-4.94714,-47.5004,39.33,0.58,15.98,23.98,9.34,89.57,99.34,93.33,4.68,55.43,72.07,25.25,2.66,53.86,17.03,25.17,17.69,4.57,10.12,0.672,0.602,0.785,0.643,0.56
451,Maranhão,2100105,Afonso Cunha,0,-4.13631,-43.3275,18.98,0.66,48.77,11.3,8.62,67.77,97.2,63.25,4.36,74.96,68.48,37.52,3.44,82.32,16.54,66.8,34.64,5.28,45.54,0.529,0.434,0.725,0.471,0.59
452,Maranhão,2100154,Água Doce do Maranhão,0,-2.84048,-42.1189,13.75,0.6,12.02,7.33,8.07,86.73,97.78,54.63,1.6,65.18,66.81,44.2,3.03,79.64,25.56,59.52,36.03,7.45,39.02,0.5,0.363,0.697,0.494,0.59
453,Maranhão,2100204,Alcântara,0,-2.39574,-44.4062,30.94,0.66,47.32,18.67,8.21,73.63,98.34,80.72,2.97,59.08,70.18,31.39,2.78,74.63,38.05,54.48,22.44,7.2,37.99,0.573,0.475,0.753,0.525,0.59
454,Maranhão,2100303,Aldeias Altas,0,-4.62621,-43.4689,16.89,0.65,72.71,9.25,6.68,77.26,87.0,51.95,1.41,70.61,68.22,38.5,3.43,82.49,30.28,60.07,37.68,5.35,36.55,0.513,0.374,0.72,0.5,0.59
455,Maranhão,2100402,Altamira do Maranhão,0,-4.16598,-45.4706,24.35,0.51,45.44,16.62,8.75,88.24,97.75,77.77,3.71,64.12,68.16,38.75,2.7,80.55,46.09,55.51,32.98,5.7,36.66,0.549,0.473,0.719,0.486,0.52
456,Maranhão,2100436,Alto Alegre do Maranhão,0,-4.213,-44.446,23.1,0.45,37.34,10.9,8.64,84.36,98.28,58.2,1.95,62.93,69.62,33.35,2.61,75.95,23.1,50.64,29.28,5.87,27.6,0.554,0.444,0.744,0.516,0.51
457,Maranhão,2100477,Alto Alegre do Pindaré,0,-3.66689,-45.8421,20.74,0.56,45.16,11.34,9.8,92.99,94.4,87.9,1.57,72.95,71.44,27.22,3.05,86.17,25.38,64.61,32.25,6.18,42.95,0.558,0.483,0.774,0.465,0.57
458,Maranhão,2100501,Alto Parnaíba,0,-9.10273,-45.9303,27.29,1.3,24.2,19.14,9.58,84.9,71.48,64.22,4.69,66.04,72.07,25.27,2.66,67.03,9.89,43.32,21.22,6.06,25.58,0.633,0.474,0.785,0.683,0.78
459,Maranhão,2100550,Amapá do Maranhão,0,-1.67524,-46.0024,20.76,0.62,40.29,13.92,8.36,86.03,98.76,35.82,4.03,73.9,66.29,46.41,3.89,80.3,56.43,58.52,33.27,4.6,37.78,0.52,0.406,0.688,0.503,0.57
460,Maranhão,2100600,Amarante do Maranhão,0,-5.56913,-46.7473,25.5,0.64,33.94,13.9,8.21,83.1,85.79,92.71,2.7,76.4,67.93,39.65,3.43,75.78,31.78,50.0,28.41,5.55,29.79,0.555,0.441,0.716,0.541,0.59
461,Maranhão,2100709,Anajatuba,0,-3.26269,-44.6126,26.0,0.69,33.78,15.55,9.18,77.24,93.32,66.35,1.98,59.76,70.69,29.65,2.44,74.57,29.58,55.32,27.31,8.03,39.99,0.581,0.492,0.762,0.523,0.6
462,Maranhão,2100808,Anapurus,0,-3.67577,-43.1014,30.45,0.53,82.74,18.69,10.1,93.3,96.96,33.98,2.24,65.57,70.85,29.11,2.94,77.09,20.14,54.45,29.9,5.54,32.99,0.581,0.502,0.764,0.511,0.54
463,Maranhão,2100832,Apicum-Açu,0,-1.45862,-45.0864,27.06,0.48,30.73,13.25,9.68,86.43,97.93,8.72,2.48,61.3,68.1,38.99,3.13,76.5,53.06,51.98,18.69,5.26,24.7,0.568,0.483,0.718,0.529,0.52
464,Maranhão,2100873,Araguanã,0,-2.94644,-45.6589,25.24,0.47,37.5,13.78,9.47,82.38,97.13,96.36,1.34,67.58,67.34,42.01,3.06,85.97,46.61,60.27,28.15,5.24,34.72,0.533,0.444,0.706,0.483,0.52
465,Maranhão,2100907,Araioses,0,-2.89091,-41.905,18.04,0.61,33.06,9.76,8.91,62.58,95.54,71.79,2.68,66.17,67.52,41.27,3.25,79.42,23.23,57.65,33.7,7.41,40.55,0.521,0.402,0.709,0.497,0.59
466,Maranhão,2100956,Arame,0,-4.88347,-46.0032,19.21,0.94,55.53,12.06,6.87,76.23,95.75,89.12,2.86,73.87,67.06,43.13,3.46,83.15,27.35,64.91,33.02,4.84,44.31,0.512,0.365,0.701,0.525,0.72
467,Maranhão,2101004,Arari,0,-3.45214,-44.7665,32.58,0.64,20.59,18.92,9.4,73.63,96.19,76.78,2.41,57.24,70.82,29.22,2.59,65.3,27.78,38.56,22.02,6.66,21.94,0.626,0.546,0.764,0.587,0.57
468,Maranhão,2101103,Axixá,0,-2.83939,-44.062,40.79,0.56,28.64,26.3,9.61,72.26,99.27,24.98,4.87,64.21,71.54,26.91,2.52,75.79,27.52,49.2,16.37,7.29,27.13,0.641,0.634,0.776,0.535,0.54
469,Maranhão,2101202,Bacabal,0,-4.22447,-44.7832,39.1,0.57,15.52,27.14,9.79,90.81,99.23,90.46,4.54,57.44,70.18,31.36,2.51,58.35,10.56,29.79,21.4,6.89,12.93,0.651,0.591,0.753,0.619,0.55
470,Maranhão,2101251,Bacabeira,0,-2.96452,-44.3164,35.83,0.55,33.6,19.37,9.44,69.48,92.33,90.09,2.37,60.09,71.09,28.32,2.73,69.99,34.47,41.72,18.3,5.37,21.44,0.629,0.58,0.768,0.558,0.54
471,Maranhão,2101301,Bacuri,0,-1.6965,-45.1328,25.44,0.61,40.69,14.9,10.52,71.09,97.66,16.25,4.34,64.61,69.24,34.68,3.0,75.55,66.46,50.78,23.66,7.38,29.48,0.578,0.484,0.737,0.54,0.58
472,Maranhão,2101350,Bacurituba,0,-2.71,-44.7329,21.11,0.56,37.51,12.8,10.41,77.17,98.74,0.0,1.53,64.99,65.86,48.26,2.72,84.49,36.56,61.9,23.9,9.6,41.62,0.537,0.479,0.681,0.474,0.55
473,Maranhão,2101400,Balsas,0,-7.53214,-46.0372,44.59,0.63,7.88,29.6,9.55,93.01,93.67,93.16,8.26,57.42,73.44,21.28,2.54,47.32,15.06,21.22,12.92,4.22,8.5,0.687,0.597,0.807,0.674,0.58
474,Maranhão,2101509,Barão de Grajaú,0,-6.74463,-43.0261,28.13,0.52,16.81,17.51,8.82,81.42,95.97,81.77,3.72,52.3,69.58,33.47,1.87,61.38,2.05,37.68,22.7,7.41,20.75,0.592,0.484,0.743,0.578,0.52
475,Maranhão,2101608,Barra do Corda,0,-5.49682,-45.2485,27.68,0.69,21.96,18.07,8.95,73.48,97.14,78.37,4.21,63.51,70.75,29.46,3.05,67.13,30.16,44.97,27.71,6.93,26.21,0.606,0.498,0.763,0.585,0.62
476,Maranhão,2101707,Barreirinhas,0,-2.75863,-42.8232,24.55,0.67,17.94,13.81,9.11,81.35,92.32,81.91,3.03,73.13,70.11,31.62,3.51,79.37,52.78,55.65,25.37,5.16,37.56,0.57,0.479,0.752,0.515,0.61
477,Maranhão,2101772,Bela Vista do Maranhão,0,-3.72618,-45.3075,21.7,0.46,44.03,12.37,9.23,94.22,99.27,54.1,2.09,67.93,69.07,35.31,3.17,78.95,38.2,51.65,29.44,6.76,24.23,0.554,0.45,0.735,0.515,0.5
478,Maranhão,2101731,Belágua,0,-3.15485,-43.5122,21.85,0.65,12.71,14.99,8.06,58.89,90.57,0.0,1.72,92.05,67.4,41.78,4.11,89.27,54.49,74.85,39.2,4.32,58.19,0.512,0.455,0.707,0.417,0.63
479,Maranhão,2101806,Benedito Leite,0,-7.21037,-44.5577,18.09,0.68,3.88,10.55,7.6,81.18,82.52,31.99,1.78,57.61,68.14,38.81,2.73,73.75,5.84,51.39,29.24,8.85,35.88,0.546,0.426,0.719,0.531,0.58
480,Maranhão,2101905,Bequimão,0,-2.44162,-44.7842,31.4,0.56,37.83,19.08,8.61,78.29,97.47,14.51,1.55,59.19,70.42,30.56,2.52,77.31,59.88,52.52,24.22,8.7,34.72,0.601,0.561,0.757,0.51,0.55
481,Maranhão,2101939,Bernardo do Mearim,0,-4.62666,-44.7608,27.06,0.42,35.4,19.7,10.84,84.83,99.12,93.5,3.52,57.13,69.49,33.8,2.69,67.78,12.07,39.67,26.78,7.72,20.29,0.604,0.547,0.742,0.544,0.47
482,Maranhão,2101970,Boa Vista do Gurupi,0,-1.77614,-46.3002,25.73,0.5,21.17,14.59,9.38,93.51,96.72,76.2,3.61,79.27,65.86,48.26,3.52,78.03,53.07,54.35,23.74,4.83,27.77,0.545,0.461,0.681,0.515,0.52
483,Maranhão,2102002,Bom Jardim,0,-3.54129,-45.606,20.0,0.58,42.9,10.95,8.41,78.49,92.2,79.52,2.42,70.54,69.98,32.08,3.11,80.1,34.3,54.28,31.79,6.12,32.27,0.538,0.4,0.75,0.519,0.58
484,Maranhão,2102036,Bom Jesus das Selvas,0,-4.47638,-46.8641,24.49,0.61,25.13,9.25,8.22,68.73,89.17,96.05,2.13,63.25,70.05,31.83,2.89,75.92,43.22,51.02,27.35,3.5,34.87,0.558,0.431,0.751,0.537,0.62
485,Maranhão,2102077,Bom Lugar,0,-4.37311,-45.0326,22.15,0.43,33.13,11.66,8.96,90.28,98.83,58.42,1.53,60.91,69.48,33.83,2.6,82.33,32.22,56.36,32.11,5.43,32.02,0.562,0.493,0.741,0.486,0.49
486,Maranhão,2102101,Brejo,0,-3.67796,-42.7527,22.29,0.76,54.62,14.38,8.53,65.48,95.07,44.03,3.0,67.57,70.45,30.44,2.96,80.61,14.44,59.4,29.92,6.67,40.08,0.562,0.454,0.758,0.517,0.64
487,Maranhão,2102150,Brejo de Areia,0,-4.334,-45.581,17.51,0.4,60.53,10.66,8.58,56.36,83.81,15.14,2.83,71.02,65.64,49.26,3.04,75.75,49.46,50.6,35.08,4.66,26.98,0.519,0.408,0.677,0.507,0.48
488,Maranhão,2102200,Buriti,0,-3.94169,-42.9179,23.16,0.76,46.04,13.08,10.14,69.12,87.89,41.4,1.85,77.3,67.82,40.07,3.33,83.21,14.87,65.31,30.27,6.14,47.94,0.548,0.48,0.714,0.479,0.63
489,Maranhão,2102309,Buriti Bravo,0,-5.83239,-43.8353,23.68,0.57,14.25,14.13,9.04,80.14,95.79,31.31,3.96,67.81,70.1,31.65,2.63,72.04,19.78,46.58,30.42,7.36,29.63,0.59,0.506,0.752,0.539,0.55
490,Maranhão,2102325,Buriticupu,0,-4.32375,-46.4409,22.33,0.6,33.91,10.16,8.72,69.77,96.95,83.44,1.58,70.8,67.46,41.52,3.21,78.43,57.53,54.68,26.9,3.89,29.4,0.556,0.455,0.708,0.533,0.6
491,Maranhão,2102358,Buritirana,0,-5.59823,-47.0131,27.28,0.49,30.06,16.28,10.27,94.17,97.38,67.41,1.81,70.5,68.5,37.43,3.25,71.17,49.88,45.3,28.45,7.01,23.52,0.583,0.505,0.725,0.54,0.5
492,Maranhão,2102374,Cachoeira Grande,0,-2.93074,-44.0528,21.73,0.52,60.24,14.23,8.74,50.0,82.52,48.96,2.92,78.22,71.36,27.46,3.46,90.28,43.83,73.88,30.41,5.29,55.86,0.537,0.476,0.773,0.422,0.57
493,Maranhão,2102408,Cajapió,0,-2.87326,-44.6741,29.5,0.6,42.36,18.51,9.02,67.92,93.47,8.32,2.56,65.23,68.2,38.61,2.81,85.6,36.66,64.11,25.58,6.93,45.03,0.553,0.505,0.72,0.466,0.57
494,Maranhão,2102507,Cajari,0,-3.32742,-45.0145,23.0,0.64,57.32,12.91,7.61,56.62,93.71,65.47,1.37,69.12,69.79,32.75,3.49,86.38,61.68,68.86,21.74,5.68,51.36,0.523,0.421,0.747,0.456,0.63
495,Maranhão,2102556,Campestre do Maranhão,0,-6.17075,-47.3625,33.37,0.42,21.36,17.64,9.91,96.62,97.56,93.19,2.3,59.2,71.41,27.32,2.66,53.06,25.92,21.72,21.26,5.08,7.92,0.652,0.586,0.774,0.611,0.48
496,Maranhão,2102606,Cândido Mendes,0,-1.43265,-45.7161,26.71,0.64,31.35,15.25,8.83,79.21,92.78,47.49,2.8,63.99,69.72,32.99,3.2,77.13,56.38,56.3,21.4,5.63,35.23,0.561,0.456,0.745,0.52,0.58
497,Maranhão,2102705,Cantanhede,0,-3.63757,-44.383,27.94,0.69,36.35,16.96,8.83,74.45,96.2,54.86,3.87,65.6,71.45,27.17,2.76,83.1,36.03,62.19,28.86,5.76,40.03,0.565,0.468,0.774,0.497,0.6
498,Maranhão,2102754,Capinzal do Norte,0,-4.7236,-44.328,21.16,0.61,31.95,13.67,8.35,89.31,96.87,42.96,3.33,61.07,66.9,43.8,2.81,76.6,11.02,54.55,32.19,8.13,36.14,0.537,0.43,0.698,0.517,0.57
499,Maranhão,2102804,Carolina,0,-7.33584,-47.4634,35.86,0.58,16.33,22.83,8.76,82.91,80.92,84.86,5.31,64.06,73.09,22.26,2.57,57.85,11.55,34.22,15.13,8.39,19.64,0.634,0.529,0.802,0.6,0.55
500,Maranhão,2102903,Carutapera,0,-1.19696,-46.0085,27.27,0.54,22.05,14.72,9.72,79.55,97.97,69.58,3.41,66.95,69.84,32.55,3.15,71.45,56.64,52.0,19.64,5.4,27.76,0.574,0.476,0.747,0.533,0.54
501,Maranhão,2103000,Caxias,0,-4.86505,-43.3617,34.76,0.56,25.37,24.52,9.66,85.0,96.71,76.51,5.17,59.54,70.16,31.46,2.41,62.48,11.7,35.21,25.75,7.5,17.21,0.624,0.543,0.753,0.595,0.55
502,Maranhão,2103109,Cedral,0,-2.00027,-44.5281,31.89,0.59,19.29,19.82,9.22,91.11,99.58,91.39,3.18,57.05,69.88,32.43,2.89,79.3,19.26,57.46,17.14,7.47,31.59,0.605,0.57,0.748,0.52,0.56
503,Maranhão,2103125,Central do Maranhão,0,-2.19831,-44.8254,28.77,0.54,47.96,16.64,9.52,78.93,96.22,17.23,1.03,73.46,67.79,40.22,3.48,79.7,64.27,56.09,26.73,6.96,34.56,0.585,0.557,0.713,0.503,0.54
504,Maranhão,2103158,Centro do Guilherme,0,-2.44891,-46.0345,23.53,0.52,30.23,11.52,8.19,77.02,98.54,59.76,1.39,63.37,67.44,41.62,2.7,77.76,60.65,51.92,28.8,3.65,32.98,0.542,0.442,0.707,0.51,0.56
505,Maranhão,2103174,Centro Novo do Maranhão,0,-2.12696,-46.1228,19.96,0.56,28.07,10.23,7.66,78.89,82.55,43.33,2.28,71.23,68.01,39.35,3.28,78.45,50.21,53.65,25.34,3.09,35.33,0.518,0.382,0.717,0.508,0.56
506,Maranhão,2103208,Chapadinha,0,-3.73875,-43.3538,31.32,0.64,36.93,20.33,8.72,71.3,93.68,68.22,3.03,65.38,71.21,27.96,2.83,72.05,30.8,48.38,25.42,6.16,29.79,0.604,0.517,0.77,0.554,0.59
507,Maranhão,2103257,Cidelândia,0,-5.17465,-47.7781,24.55,0.41,28.71,14.12,9.67,92.43,98.29,80.33,2.77,65.07,68.7,36.68,3.01,64.37,29.71,36.27,24.29,6.29,16.72,0.6,0.529,0.728,0.562,0.47
508,Maranhão,2103307,Codó,0,-4.45562,-43.8924,27.88,0.63,35.34,18.66,8.88,87.21,97.78,88.05,3.51,65.62,70.22,31.22,2.69,68.92,18.2,44.04,30.47,7.71,25.07,0.595,0.492,0.754,0.568,0.57
509,Maranhão,2103406,Coelho Neto,0,-4.25245,-43.0108,26.22,0.54,41.98,17.4,8.28,93.95,96.69,57.13,3.79,64.9,68.67,36.8,2.82,73.62,37.89,47.3,28.95,6.1,23.04,0.564,0.454,0.728,0.544,0.54
510,Maranhão,2103505,Colinas,0,-6.03199,-44.2543,25.7,0.75,23.76,16.29,9.2,72.78,95.95,59.6,3.6,62.25,67.52,41.27,2.65,71.52,28.78,48.71,29.83,6.05,30.88,0.596,0.524,0.709,0.571,0.63
511,Maranhão,2103554,Conceição do Lago-Açu,0,-3.85142,-44.8895,18.72,0.46,45.15,9.7,8.15,57.74,94.83,61.44,2.58,77.06,69.26,34.62,3.8,80.5,45.24,58.58,34.88,4.62,33.43,0.512,0.37,0.738,0.492,0.51
512,Maranhão,2103604,Coroatá,0,-4.13442,-44.1244,24.82,0.64,33.71,15.62,9.35,91.32,95.27,71.92,3.53,65.19,69.21,34.82,2.76,73.19,14.9,49.57,32.2,7.01,31.93,0.576,0.475,0.737,0.545,0.58
513,Maranhão,2103703,Cururupu,0,-1.81475,-44.8644,29.81,0.6,38.26,16.96,10.08,81.3,95.53,47.9,2.84,62.84,71.06,28.45,2.58,71.72,46.29,44.54,17.41,8.25,21.45,0.612,0.525,0.768,0.568,0.58
514,Maranhão,2103752,Davinópolis,0,-5.54637,-47.4217,33.86,0.36,18.29,19.68,9.61,97.77,98.53,41.02,2.42,67.12,69.84,32.56,2.96,67.28,26.38,34.77,25.01,6.88,11.85,0.607,0.535,0.747,0.561,0.45
515,Maranhão,2103802,Dom Pedro,0,-5.03518,-44.4409,30.89,0.43,26.74,16.39,8.9,94.21,99.12,91.73,3.43,58.08,70.52,30.23,2.61,62.06,14.83,33.56,24.23,7.27,14.32,0.622,0.545,0.759,0.582,0.48
516,Maranhão,2103901,Duque Bacelar,0,-4.15002,-42.9477,21.78,0.69,53.49,13.54,8.82,76.61,93.7,45.4,2.77,72.26,66.56,45.23,3.03,81.63,2.42,63.58,31.97,5.92,41.83,0.533,0.451,0.693,0.485,0.6
517,Maranhão,2104008,Esperantinópolis,0,-4.87938,-44.6926,25.87,0.67,38.52,16.25,9.82,85.17,98.11,79.44,3.35,61.23,67.76,40.31,2.54,72.09,19.94,46.89,30.88,7.21,27.04,0.586,0.503,0.713,0.561,0.59
518,Maranhão,2104057,Estreito,0,-6.56077,-47.4431,38.05,0.6,7.9,22.95,7.73,95.08,96.67,97.36,4.68,51.6,73.02,22.46,2.66,46.88,5.22,22.67,15.18,4.65,10.52,0.659,0.536,0.8,0.666,0.56
519,Maranhão,2104073,Feira Nova do Maranhão,0,-6.96508,-46.6786,21.04,0.73,35.27,12.27,9.51,89.13,75.34,96.77,2.93,69.75,68.73,36.57,3.29,80.06,8.98,59.86,19.75,6.03,40.35,0.532,0.405,0.729,0.511,0.62
520,Maranhão,2104081,Fernando Falcão,0,-6.16207,-44.8979,12.46,0.54,40.58,6.17,5.75,58.69,88.36,32.97,0.99,75.94,68.67,36.79,3.32,90.45,17.45,72.73,38.03,4.85,51.61,0.443,0.286,0.728,0.417,0.55
521,Maranhão,2104099,Formosa da Serra Negra,0,-6.44017,-46.1916,23.08,0.69,40.2,15.31,8.1,74.2,73.61,67.77,3.64,61.9,71.41,27.3,2.64,82.86,12.95,62.31,18.49,4.71,45.61,0.556,0.459,0.774,0.485,0.63
522,Maranhão,2104107,Fortaleza dos Nogueiras,0,-6.95983,-46.1749,30.61,0.53,27.74,19.3,8.65,87.72,89.85,91.37,4.73,59.47,71.38,27.4,2.78,64.9,19.18,38.76,15.94,5.53,22.48,0.616,0.534,0.773,0.566,0.53
523,Maranhão,2104206,Fortuna,0,-5.72792,-44.1565,24.37,0.62,15.05,18.15,9.48,75.37,98.77,60.32,4.71,67.63,67.33,42.03,3.02,67.07,32.47,46.79,30.51,7.39,29.45,0.58,0.494,0.706,0.558,0.56
524,Maranhão,2104305,Godofredo Viana,0,-1.40259,-45.7795,33.32,0.45,56.49,18.99,9.09,71.38,96.97,23.86,2.77,56.35,70.02,31.94,2.57,70.5,49.55,46.2,16.95,4.45,21.99,0.604,0.546,0.75,0.537,0.5
525,Maranhão,2104404,Gonçalves Dias,0,-5.1475,-44.3013,21.13,0.69,47.46,12.01,8.86,85.06,96.25,84.43,3.42,63.43,70.46,30.42,2.83,72.79,17.4,53.83,34.75,7.88,34.03,0.568,0.445,0.758,0.542,0.59
526,Maranhão,2104503,Governador Archer,0,-5.02078,-44.2754,21.7,0.57,36.11,14.11,9.3,89.25,98.51,83.46,3.55,61.78,66.21,46.73,2.6,72.31,22.37,47.57,31.48,7.64,26.16,0.565,0.481,0.687,0.545,0.55
527,Maranhão,2104552,Governador Edison Lobão,0,-5.74973,-47.3646,32.41,0.38,20.71,17.01,9.52,93.83,96.65,91.9,2.22,61.14,70.84,29.15,2.99,60.96,23.62,28.48,19.63,5.87,9.25,0.629,0.552,0.764,0.589,0.46
528,Maranhão,2104602,Governador Eugênio Barros,0,-5.31897,-44.2469,22.0,0.66,42.65,13.5,9.75,91.19,97.3,88.22,3.03,68.45,69.15,35.03,2.98,73.37,32.96,48.32,35.9,7.5,29.5,0.572,0.462,0.736,0.55,0.58
529,Maranhão,2104628,Governador Luiz Rocha,0,-5.47835,-44.0774,21.84,0.59,26.87,13.8,9.35,94.4,97.6,22.78,3.06,65.4,66.51,45.45,2.75,75.07,14.68,52.7,30.85,6.81,37.56,0.544,0.459,0.692,0.508,0.55
530,Maranhão,2104651,Governador Newton Bello,0,-3.43245,-45.6619,16.89,0.5,57.63,9.28,8.19,82.95,91.39,74.91,0.83,70.45,68.07,39.1,3.49,79.61,40.24,54.69,36.23,5.49,30.65,0.521,0.387,0.718,0.509,0.52
